index,licence_ref,description,licensee_name,trading_name,nominee_name,address_1,address_2,address_3,county,full_address,google_address,lat,lng
0,Kkp0945,Publican's Licence (7-Day Ordinary),Mary Lawlor,Lawlor's,,Kilcarrig Street,Bagenalstown,,Co. Carlow,"Lawlor's, Kilcarrig Street, Bagenalstown, Co. Carlow","Kilcarrig St, Co. Carlow, Ireland",52.6980223,-6.9314953
1,Cap0189,Publican's Licence (7-Day Ordinary),John Colgan,The Tara Arms,,Church Street,Tullow,,Co. Carlow,"The Tara Arms, Church Street, Tullow, Co. Carlow","Tara Arms, Church Street, Tullow, Co. Carlow, R93 T6K9, Ireland",52.8032534,-6.734699699999999
2,Cap0105,Publican's Licence (7-Day Ordinary),Rory Sheerin,The Ridge Bar,,Old Leighlin,,,Co. Carlow,"The Ridge Bar, Old Leighlin, Co. Carlow","Oldleighlin, Co. Carlow, Ireland",52.7364507,-7.02344
3,Cap0166,Publican's Licence (7-Day Ordinary),Joe Doyle,Joe Doyles,,Main Street,Ballon,,Co. Carlow,"Joe Doyles, Main Street, Ballon, Co. Carlow","Main Street, Ballon, Co. Carlow, Ireland",52.7389883,-6.769584800000001
4,Kkp0951,Publican's Licence (7-Day Ordinary),Bartholomew Murphy,The Red Lion,,Regent Street,Bagenalstown,,Co. Carlow,"The Red Lion, Regent Street, Bagenalstown, Co. Carlow","Regent Street, Muine Bheag, R21 F300, Ireland",52.7027704,-6.9617891
5,Cap0103,Publican's Licence (7-Day Ordinary),Denis Carey,Carey's Pub,,Old Leighlin,,,Co. Carlow,"Carey's Pub, Old Leighlin, Co. Carlow","47 Irishtown, Greenan, Clonmel, Co. Tipperary, Ireland",52.35180829999999,-7.711275
6,1002189,Publican's Licence (7-Day Ordinary),Invito Veritas Limited,Carpe Diem,,Bank House,Court Place,,Co. Carlow,"Carpe Diem, Bank House, Court Place, Co. Carlow","Court Pl, Graigue, Carlow, Ireland",52.8387338,-6.9302297
7,Kkp0950,Publican's Licence (7-Day Ordinary),James Doyle,Jimmy D's,,Regent Street,Bagenalstown,,Co. Carlow,"Jimmy D's, Regent Street, Bagenalstown, Co. Carlow","Regent St, Moneybeg, Muine Bheag, Co. Carlow, Ireland",52.702641,-6.9603721
8,Cap0455,Publican's Licence (7-Day Ordinary),Margaret Mellett,The Ardattin Inn,,Ardattin,Tullow,,Co. Carlow,"The Ardattin Inn, Ardattin, Tullow, Co. Carlow","Ardattin, Carlow, Ireland",52.7536065,-6.706720499999999
9,Kkp0954,Publican's Licence (7-Day Ordinary),Mary O'brien,Lawlors,,Kilcarrig Street,Bagenalstown,,Co. Carlow,"Lawlors, Kilcarrig Street, Bagenalstown, Co. Carlow","Market Square, Kilcarrig, Bagenalstown, Co. Carlow, Ireland",52.7020998,-6.956016699999999
10,Kkp1010,Publican's Licence (7-Day Ordinary),Patrick Foley,High Nellys,,Milltown,Garryhill,,Co. Carlow,"High Nellys, Milltown, Garryhill, Co. Carlow","Milltown, Co. Carlow, Ireland",52.6737766,-6.8413742
11,Cap0064,Publican's Licence (7-Day Ordinary),Leslie Proundfoot,O'loughlin's Bar,,53 Dublin Street,Carlow,,Co. Carlow,"O'loughlin's Bar, 53 Dublin Street, Carlow, Co. Carlow","53 Dublin St, Graigue, Carlow, R93 R221, Ireland",52.8371886,-6.931819099999999
12,Cap0241,Publican's Licence (7-Day Ordinary),Ms Sally Walshe,Walshes,,Killerig Cross,Killerig,,Co. Carlow,"Walshes, Killerig Cross, Killerig, Co. Carlow","Killerrig, Co. Carlow, Ireland",52.84305939999999,-6.7890643000000015
13,Cap0080,Publican's Licence (7-Day Ordinary),Soljet Ireland Limited,The Med Bar,Mr Laurence Murray,112 - 115  Tullow Street,Carlow,,Co. Carlow,"The Med Bar, 112 - 115  Tullow Street, Carlow, Co. Carlow","112 Tullow St, Carlow, Ireland",52.8361963,-6.928342799999999
14,Cap0217,Publican's Licence (7-Day Ordinary),Jeremiah Meaney,Meaney's Bar,,The Quay,Leighlinbridge,,Co. Carlow,"Meaney's Bar, The Quay, Leighlinbridge, Co. Carlow","Main St, Ballyknockan, Co. Carlow, Ireland",52.7362346,-6.979156799999999
15,Cap0190,Publican's Licence (7-Day Ordinary),John Jackman,J J's Bar,,Mill Street,Tullow,,Co. Carlow,"J J's Bar, Mill Street, Tullow, Co. Carlow","Mill St, Templeowen, Tullow, Co. Carlow, Ireland",52.8023919,-6.7360196
16,Cap0087,Publican's Licence (7-Day Ordinary),John Behan,The Grove,,Tolerton,Ballickmoyler,,Co. Carlow,"The Grove, Tolerton, Ballickmoyler, Co. Carlow",,,
17,1000262,Publican's Licence (7-Day Ordinary),Ellen Ann Coleman,Murphy's,,Ballymurphy,Borris,,Co. Carlow,"Murphy's, Ballymurphy, Borris, Co. Carlow","Ballymurphy, Co. Carlow, Ireland",52.5722332,-6.861485
18,Cap0132,Publican's Licence (7-Day Ordinary),Martin Molloy,Molloys Public House,,Rathvilly,,,Co. Carlow,"Molloys Public House, Rathvilly, Co. Carlow","24 Main St, Tallaght, Dublin, Ireland",53.2880048,-6.359526300000001
19,Cap0099,Publican's Licence (7-Day Ordinary),Ms Bernadette Whelan,The Mall,,Clonmore,Killeshin,,Co. Carlow,"The Mall, Clonmore, Killeshin, Co. Carlow","Clonmore, Killeshin, Co. Laois, Ireland",52.8429787,-6.977504199999999
20,Cap0183,Publican's Licence (7-Day Ordinary),Ken Tyrell Rec Over Certain Assets Of James Finlan And Muriel Finlan,Bridge House Finlans,,Bridge Street,Tullow,,Co. Carlow,"Bridge House Finlans, Bridge Street, Tullow, Co. Carlow",Finland,61.92410999999999,25.7481511
21,Cap0079,Publican's Licence (7-Day Ordinary),Oliver Byrne,Racey Byrne's The Plough,,79 Tullow Street,Carlow,,Co. Carlow,"Racey Byrne's The Plough, 79 Tullow Street, Carlow, Co. Carlow","83 Tullow St, Carlow, Ireland",52.8361648,-6.9257332
22,Cap0247,Publican's Licence (7-Day Ordinary),Vincent Toner,Palatine House,,Palatine,Carlow,,Co. Carlow,"Palatine House, Palatine, Carlow, Co. Carlow","Killyshane, Palatine, Co. Carlow, Ireland",52.8649974,-6.861034699999999
23,Cap0060,Publican's Licence (7-Day Ordinary),Jayden Taverns Limited,Dicey Reilly's,Michael Reilly,7 Cornwall Quay,Carlow,,Co. Carlow,"Dicey Reilly's, 7 Cornwall Quay, Carlow, Co. Carlow","Centaur St, Graigue, Carlow, Ireland",52.8371925,-6.9358857
24,Cap0084,Publican's Licence (7-Day Ordinary),John Finn,The Castle Inn,,24 Governey Place,Carlow,,Co. Carlow,"The Castle Inn, 24 Governey Place, Carlow, Co. Carlow","Castle Hill, Graigue, Carlow, Ireland",52.8366851,-6.9360835
25,Cap0467,Publican's Licence (7-Day Ordinary),Elmpark Investments Limited,The Barracks Bar,Niall Mcloughlin,32 Tullow Street,Carlow,,Co. Carlow,"The Barracks Bar, 32 Tullow Street, Carlow, Co. Carlow","32 Tullow St, Graigue, Carlow, Ireland",52.8360764,-6.9289627
26,Cap0100,Publican's Licence (7-Day Ordinary),Brendan Fitzpatrick,Glenside,,Killeshin,,,Co. Carlow,"Glenside, Killeshin, Co. Carlow","Killeshin Rd, Clonmore, Carlow, Co. Laois, Ireland",52.84819779999999,-6.9908724
27,Cap0214,Publican's Licence (7-Day Ordinary),Patrick Downey,The Garrison Bar,,Leighlinlin Bridge,,,Co. Carlow,"The Garrison Bar, Leighlinlin Bridge, Co. Carlow","Main St, Ballyknockan, Leighlinbridge, Co. Carlow, Ireland",52.73621,-6.97769
28,Cap0197,Publican's Licence (7-Day Ordinary),James Boland,Bolands Bar And Lounge,,Main Street,Hacketstown,,Co. Carlow,"Bolands Bar And Lounge, Main Street, Hacketstown, Co. Carlow","Main St, Hacketstown Upper, Hacketstown, Co. Carlow, Ireland",52.8646985,-6.5576991
29,Cap0055,Publican's Licence (7-Day Ordinary),Haymarket Co Limited,Ewings,Mr Kenneth Ewing,4 Centaur Street,Carlow,,Co. Carlow,"Ewings, 4 Centaur Street, Carlow, Co. Carlow","Hay Market, Graigue, Carlow, Ireland",52.8376227,-6.932743500000001
30,Cap0050,Publican's Licence (7-Day Ordinary),Kevin Moore (bld Contractor) Limited,Sheriff Guevaras,Kevin Moore,11 Brown Street,Carlow,,Co. Carlow,"Sheriff Guevaras, 11 Brown Street, Carlow, Co. Carlow","11 Brown St, Graigue, Carlow, Ireland",52.8372992,-6.9296494
31,Cap0058,Publican's Licence (7-Day Ordinary),Noel Walker,Mcsiuls,,9 Kennedy Street,Carlow,,Co. Carlow,"Mcsiuls, 9 Kennedy Street, Carlow, Co. Carlow","Rotunda, Dublin, Ireland",53.3540317,-6.264429900000001
32,Cap0216,Publican's Licence (7-Day Ordinary),Denis Kilbride,The Rainbow Bar,,Church Street,Leighlin Bridge,,Co. Carlow,"The Rainbow Bar, Church Street, Leighlin Bridge, Co. Carlow","Church St, Leighlinbridge, Co. Carlow, Ireland",52.73279489999999,-6.9816803
33,Cap0336,Publican's Licence (7-Day Ordinary),Barrow Hospitality Limited,Scraggs Alley,,12/13 Tullow Street,Carlow,,Co. Carlow,"Scraggs Alley, 12/13 Tullow Street, Carlow, Co. Carlow","12 Tullow St, Graigue, Carlow, R93 PP79, Ireland",52.8363696,-6.931325999999999
34,Cap0097,Publican's Licence (7-Day Ordinary),Joseph Hayden,The Thatch Bar,,Maryborough Street,Graiguecullen,,Co. Carlow,"The Thatch Bar, Maryborough Street, Graiguecullen, Co. Carlow","5 Maryborough St, Graiguecullen, Carlow, Co. Carlow, R93 H4F8, Ireland",52.8372743,-6.938454999999999
35,Cap0081,Publican's Licence (7-Day Ordinary),Deerbourne Limited,Lennons,Ms Sinead Byrne,121 Tullow Street,Carlow,,Co. Carlow,"Lennons, 121 Tullow Street, Carlow, Co. Carlow","Old Dublin Rd, Graigue, Carlow, Ireland",52.8379139,-6.9280052
36,Cap0218,Publican's Licence (7-Day Ordinary),Matthew Byrne,The Royal Oak Tavern,,Cloruske,Bagenalstown,,Co. Carlow,"The Royal Oak Tavern, Cloruske, Bagenalstown, Co. Carlow","Clorusk Lower, Co. Carlow, Ireland",52.7013971,-6.985793900000001
37,Cap0185,Publican's Licence (7-Day Ordinary),James Mcdermott,The Granite House,,Bridge Street,Tullow,,Co. Carlow,"The Granite House, Bridge Street, Tullow, Co. Carlow","Granite House, Bridge St, Templeowen, Tullow, Co. Carlow, Ireland",52.8027483,-6.7370714
38,Cap0179,Publican's Licence (7-Day Ordinary),Timothy Radford,The Fighting Cocks,,Templepeter,Nurney,,Co. Carlow,"The Fighting Cocks, Templepeter, Nurney, Co. Carlow","Templepeter, Co. Carlow, Ireland",52.7604382,-6.8519152
39,Cap0049,Publican's Licence (7-Day Ordinary),Carpenter Bros Limited,Carpenter's,Mark Carpenter,10/11 Barrack Street,Carlow,,Co. Carlow,"Carpenter's, 10/11 Barrack Street, Carlow, Co. Carlow","10 Barrack St, Carlow, Ireland",52.8351456,-6.9259146
40,Cap0073,Publican's Licence (7-Day Ordinary),James J.reddy (carlow) Limited,Reddys Of Carlow,Carmel Doyle,67 Tullow Street,Carlow,,Co. Carlow,"Reddys Of Carlow, 67 Tullow Street, Carlow, Co. Carlow","67 Tullow St, Carlow, Ireland",52.836017,-6.9254798
41,Cap0180,Publican's Licence (7-Day Ordinary),Jerry Malee And Catherine Malee,The Hogan Stand,Catherine Malee,Abbey Street,Tullow,,Co. Carlow,"The Hogan Stand, Abbey Street, Tullow, Co. Carlow","Abbey Close, Templeowen, Tullow, Co. Carlow, Ireland",52.8017811,-6.738625799999999
42,Cap0219,Publican's Licence (7-Day Ordinary),John J.glendon,The Pint Depot,,Royal Oak,Bagenalstown,,Co. Carlow,"The Pint Depot, Royal Oak, Bagenalstown, Co. Carlow","Clorusk Lower, Co. Carlow, Ireland",52.7013971,-6.985793900000001
43,Cap0092,Publican's Licence (7-Day Ordinary),Ms Bridie Kennedy,The High Trees,,Balynagall,Arles,,Co. Carlow,"The High Trees, Balynagall, Arles, Co. Carlow","Rathtillig, Arles, Co. Laois, Ireland",52.89297,-7.020919999999999
44,Cap0184,Publican's Licence (7-Day Ordinary),Gerard Dalton,Daltons Public House,,Bridge Street,Tullow,,Co. Carlow,"Daltons Public House, Bridge Street, Tullow, Co. Carlow","Bridge House, Abbey St, Templeowen, Tullow, Co. Carlow, Ireland",52.8027041,-6.7370452
45,Kkp0948,Publican's Licence (7-Day Ordinary),Liam And Noeleen Dowling,The Kilree Arms,,Kilree Street,Bagenalstown,,Co. Carlow,"The Kilree Arms, Kilree Street, Bagenalstown, Co. Carlow","Kilree St, Co. Carlow, Ireland",52.699971,-6.957948099999999
46,Kkp1003,Publican's Licence (7-Day Ordinary),Joyce's (borris) Limited,Joyce's,Mr John Joyce And Mr Edward Joyce,Main Street,Borris,,Co. Carlow,"Joyce's, Main Street, Borris, Co. Carlow","Main St, Knocknagundarragh, Borris, Co. Carlow, Ireland",52.6003362,-6.923970400000001
47,Cap0354,Publican's Licence (7-Day Ordinary),Jd Wetherspoon Plc,Jd Wetherspoon Ireland,,7 Tullow Street,Carlow,,Co. Carlow,"Jd Wetherspoon Ireland, 7 Tullow Street, Carlow, Co. Carlow","Westend Retail Park, Blanchardstown, Dublin 15, Co. Dublin, Ireland",53.3892063,-6.3888826
48,Cap0078,Publican's Licence (7-Day Ordinary),Raths Hospitality,Teach Dolmen,Willie Rath,74/75/76 Tullow Street,Carlow,,Co. Carlow,"Teach Dolmen, 74/75/76 Tullow Street, Carlow, Co. Carlow","76 Tullow St, Carlow, R93 NY70, Ireland",52.8361913,-6.9254396
49,Cap0169,Publican's Licence (7-Day Ordinary),Conways Public House Limited,Conways,James Conway,Kildavin,,,Co. Carlow,"Conways, Kildavin, Co. Carlow","Kildavin, Bunclody, Co. Wexford, Ireland",52.6834393,-6.6848611
50,Cap0212,Publican's Licence (7-Day Ordinary),Leighlinbridge Enterprises Limited,The Lord Bagenal,,Bridge Street,Leighlinbridge,,Co. Carlow,"The Lord Bagenal, Bridge Street, Leighlinbridge, Co. Carlow","Main St, Ballyknockan, Leighlinbridge, Co. Carlow, Ireland",52.73616999999999,-6.976642000000001
51,Cap0074,Publican's Licence (7-Day Ordinary),Lawlors Bar Limited,The John Tyndall,Arthur Lawlor,Barrack Street,Carlow,,Co. Carlow,"The John Tyndall, Barrack Street, Carlow, Co. Carlow","Barrack St, Carlow, Co. Carlow, Ireland",52.8351435,-6.9256408
52,1000002,Publican's Licence (7-Day Ordinary),Doyle's The Railway House Limited,The Railway House,Mark Doyle,Kilree Street,Bagenalstown,,Co. Carlow,"The Railway House, Kilree Street, Bagenalstown, Co. Carlow","Kilcarrig, Co. Carlow, Ireland",52.7006076,-6.9573152
53,Cap0182,Publican's Licence (7-Day Ordinary),Gabriel Griffin,Griffin's Lounge,,Barrack Street,Tullow,,Co. Carlow,"Griffin's Lounge, Barrack Street, Tullow, Co. Carlow","The Square, Tullowphelim, Tullow, Co. Carlow, Ireland",52.803053,-6.736097699999999
54,Cap0131,Publican's Licence (7-Day Ordinary),Thomas Byrne,The Rathvilly Inn,,Rathvilly,,,Co. Carlow,"The Rathvilly Inn, Rathvilly, Co. Carlow","Germaines, Rathvilly, Co. Carlow, Ireland",52.8572189,-6.6728871
55,Cap0093,Publican's Licence (7-Day Ordinary),Anthony O'kelly,O'kelly's,,Ballickmoyler,,,Co. Carlow,"O'kelly's, Ballickmoyler, Co. Carlow","Carlow, Ireland",52.8365072,-6.9341359
56,Cap0215,Publican's Licence (7-Day Ordinary),Mill Lough Developments Limited,Kelly's Bar,,Church Street,Leighlinbridge,,Co. Carlow,"Kelly's Bar, Church Street, Leighlinbridge, Co. Carlow","Church St, Ballyknockan, Leighlinbridge, Co. Carlow, Ireland",52.73279489999999,-6.9816803
57,Cap0083,Publican's Licence (7-Day Ordinary),Tullys Bar Limited,Tully's Bar,Mr Patrick Tully,148/149 Tullow Street,Carlow,,Co. Carlow,"Tully's Bar, 148/149 Tullow Street, Carlow, Co. Carlow","148-149 Tullow St, Graigue, Carlow, R93 W243, Ireland",52.836536100000004,-6.9315834999999995
58,Cap0002,Publican's Licence (7-Day Ordinary),Barrow Estoria Limited,Estoria,,Main Street,Bagenalstown,,Co. Carlow,"Estoria, Main Street, Bagenalstown, Co. Carlow","Main St, Kilcarrig, Bagenalstown, Co. Carlow, Ireland",52.7020287,-6.957647499999999
59,Cap0061,Publican's Licence (7-Day Ordinary),Billy Idol Limited,The Irishman,Mr Declan O'loughlin,Court Place,Carlow,,Co. Carlow,"The Irishman, Court Place, Carlow, Co. Carlow","College St, Graigue, Carlow, Ireland",52.83879659999999,-6.929956
60,Cap0188,Publican's Licence (7-Day Ordinary),N And I O'byrne Limited,Forans Public House,Ms Noeleen O'byrne,Church Street,Tullow,,Co. Carlow,"Forans Public House, Church Street, Tullow, Co. Carlow","Bridge House, Abbey St, Templeowen, Tullow, Co. Carlow, Ireland",52.8027041,-6.7370452
61,Cap0165,Publican's Licence (7-Day Ordinary),K O B Public House Limited,Kavanagh's,Paul Kavanagh,Ballon,,,Co. Carlow,"Kavanagh's, Ballon, Co. Carlow","Main St, Ballon, Co. Carlow, Ireland",52.738981,-6.770293
62,Cap0052,Publican's Licence (7-Day Ordinary),Hi-tech Print Services Limited,Castle Off Licence,Mr James Barcoe,"5, 6 And 8 Castle Street",Carlow,,Co. Carlow,"Castle Off Licence, 5, 6 And 8 Castle Street, Carlow, Co. Carlow","80 Boherbee, Cloonalour, Tralee, Co. Kerry, Ireland",52.26916800000001,-9.700069
63,Cap0057,Publican's Licence (7-Day Ordinary),Declan Mchugh,Nancy Whiskey's,,1 Church Street,Carlow,,Co. Carlow,"Nancy Whiskey's, 1 Church Street, Carlow, Co. Carlow","Hay Market, Graigue, Carlow, Ireland",52.8372856,-6.9329671
64,Kkp0999,Publican's Licence (7-Day Ordinary),Eric Osborne,Osborne's Pub,,Rathanna,Borris,,Co. Carlow,"Osborne's Pub, Rathanna, Borris, Co. Carlow","Rathanna, Co. Carlow, Ireland",52.6012189,-6.8324591
65,Kkp1005,Publican's Licence (7-Day Ordinary),James Doyle,John A's,,Glynn,St Mullins,,Co. Carlow,"John A's, Glynn, St Mullins, Co. Carlow","Ballyknock, St Mullin's, Co. Carlow, Ireland",52.4911459,-6.9297737999999995
66,Kkp1008,Publican's Licence (7-Day Ordinary),Luke Kavanagh,Blanchfields,,St Mullins,,,Co. Carlow,"Blanchfields, St Mullins, Co. Carlow","The Quay, Saint Mullin's, Co. Carlow, Ireland",52.4877016,-6.928736000000001
67,Cap0374,Publican's Licence (7-Day Ordinary),Daleport Taverns Limited,Miller's Bar,Mr Gerard Cahill,Tullow Road,Carlow,,Co. Carlow,"Miller's Bar, Tullow Road, Carlow, Co. Carlow","Carlow, Ireland",52.83164679999999,-6.9098418
68,Cap0192,Publican's Licence (7-Day Ordinary),John A. Myers,The Deereen Inn,,Mill Street,Tullow,,Co. Carlow,"The Deereen Inn, Mill Street, Tullow, Co. Carlow","Mill Street, Templeowen, Tullow, Co. Carlow, Ireland",52.80110260000001,-6.7351142
69,Cap0199,Publican's Licence (7-Day Ordinary),Elizabeth Townsend,The Corner,,Main Street,Hacketstown,,Co. Carlow,"The Corner, Main Street, Hacketstown, Co. Carlow","Main St, Hacketstown Upper, Hacketstown, Co. Carlow, Ireland",52.8646985,-6.5576991
70,Cn0005,Publican's Licence (7-Day Ordinary),Thomas J. Seery,Eagle Bar,,Main Street,Arva,,Co. Cavan,"Eagle Bar, Main Street, Arva, Co. Cavan","Main St, Arvagh, Co. Cavan, Ireland",53.9236832,-7.582612200000001
71,Cl0063,Publican's Licence (7-Day Ordinary),Seamus Nulty,The Oakland Arms,,Bridge Street,Cootehill,,Co. Cavan,"The Oakland Arms, Bridge Street, Cootehill, Co. Cavan","22 Bridge St, Drumaveil North, Cootehill, Co. Cavan, Ireland",54.0730415,-7.0833206
72,Cn0175,Publican's Licence (7-Day Ordinary),Michael Mcmanus,The Swan Bar,,Chapel Street,Swanlinbar,,Co. Cavan,"The Swan Bar, Chapel Street, Swanlinbar, Co. Cavan","Hawkswood, Swanlinbar, Co. Cavan, Ireland",54.1937636,-7.7047113
73,Cn0129,Publican's Licence (7-Day Ordinary),Cormore Investments Limited,The Thomas Ashe,,Ashe Street,Cavan,,Co. Cavan,"The Thomas Ashe, Ashe Street, Cavan, Co. Cavan","Thomas Ashe St, Abbeyland, Cavan, Ireland",53.9923635,-7.3608567
74,Cn0873,Publican's Licence (7-Day Ordinary),The Stray Sod Limited,The Stray Sod,Eamon Denning,Drumauna,,,Co. Cavan,"The Stray Sod, Drumauna, Co. Cavan","Drung, Aghnadaragan, Drung, Co. Cavan, Ireland",54.0410603,-7.223724
75,Cn0587,Publican's Licence (7-Day Ordinary),Tony Clarke,The Beer Garden,,Oldcastle Street,Ballyjamesduff,,Co. Cavan,"The Beer Garden, Oldcastle Street, Ballyjamesduff, Co. Cavan","Stradone St, Cornahilt, Ballyjamesduff, Co. Cavan, Ireland",53.8645112,-7.2050786
76,Cn0064,Publican's Licence (7-Day Ordinary),Andrew Cronin,Crannog,,Main Street,Ballinagh,,Co. Cavan,"Crannog, Main Street, Ballinagh, Co. Cavan","Main Street Ballinagh Cavan, Ballinagh, Co. Cavan, Ireland",53.9304706,-7.409794400000001
77,Cn0424,Publican's Licence (7-Day Ordinary),Art Mcseain,Mcseain's Cornafean,,Drumcoghill,Cornafean,,Co. Cavan,"Mcseain's Cornafean, Drumcoghill, Cornafean, Co. Cavan","Cornafean, Co. Cavan, Ireland",53.9467273,-7.4864902
78,Cn0727,Publican's Licence (7-Day Ordinary),"Anne Murray,carl Murray,barry Murray,donal Murray And Nicole Murray",The Vault Bar,Ciaran Murray,Main Street,Cavan,,Co. Cavan,"The Vault Bar, Main Street, Cavan, Co. Cavan","47 Main St, Townparks, Cavan, Ireland",53.989838,-7.360364499999999
79,Dg0475,Publican's Licence (7-Day Ordinary),Acetalab Limited,The Riverfront Hotel,Antoinette Murray,Main Street,Virginia,,Co. Cavan,"The Riverfront Hotel, Main Street, Virginia, Co. Cavan","5 Main St, Rahardrum, Virginia, Co. Cavan, A82 N9X7, Ireland",53.8348337,-7.0823719
80,Dg0665,Publican's Licence (7-Day Ordinary),Dongorrey Limited,Clarke's Xl,,Main Street,Bailieborough,,Co. Cavan,"Clarke's Xl, Main Street, Bailieborough, Co. Cavan","Lower Main Street, Beckscourt, Bailieborough, Co. Cavan, Ireland",53.9174592,-6.9722068
81,Dg0692,Publican's Licence (7-Day Ordinary),John Ruxton And Teresa Ruxton,Crossans,Teresa Ruxton,Main Street,Bailieborough,,Co. Cavan,"Crossans, Main Street, Bailieborough, Co. Cavan","Main St, Tanderagee, Bailieborough, Co. Cavan, Ireland",53.9160804,-6.9695699
82,Cn0075,Publican's Licence (7-Day Ordinary),Castlehill Bar Limited,The Castle Sport Bar And Lounge,,4 The Diamond,Belturbet,,Co. Cavan,"The Castle Sport Bar And Lounge, 4 The Diamond, Belturbet, Co. Cavan","No, 4 The Diamond, Belturbet, Co. Cavan, Ireland",54.100623,-7.444873
83,Cn0073,Publican's Licence (7-Day Ordinary),Adrian Mckiernan,The Whiskey Barrell And Donohoes Bar,,Main Street,Belturbet,,Co. Cavan,"The Whiskey Barrell And Donohoes Bar, Main Street, Belturbet, Co. Cavan","Duffry Gate, Templeshannon, Enniscorthy, Co. Wexford, Ireland",52.5029204,-6.5727062
84,Cn0002,Publican's Licence (7-Day Ordinary),Padraig O'hara,Nicholas O'hara,,Main Street,Arva,,Co. Cavan,"Nicholas O'hara, Main Street, Arva, Co. Cavan","Main St, Arvagh, Co. Cavan, Ireland",53.9236832,-7.582612200000001
85,Cn0108,Publican's Licence (7-Day Ordinary),Brandon Taverns Limited,The Imperial Hotel,,47 Main Street,Cavan,,Co. Cavan,"The Imperial Hotel, 47 Main Street, Cavan, Co. Cavan","47 Main St, Townparks, Cavan, Ireland",53.989838,-7.360364499999999
86,Cn0144,Publican's Licence (7-Day Ordinary),Peter Owens,The Vintage Bar,,Main Street,Killeshandra,,Co. Cavan,"The Vintage Bar, Main Street, Killeshandra, Co. Cavan","Main St, Portaliff Glebe, Killashandra, Co. Cavan, Ireland",54.0157047,-7.529079299999999
87,Cn0131,Publican's Licence (7-Day Ordinary),John Sheridan And Matthew Mcgivney,Crosskeys Inn,John Sheridan,Crosskeys,,,Co. Cavan,"Crosskeys Inn, Crosskeys, Co. Cavan","Killatain Cross keys Cavan, Cross keys, Cavan, Ireland",53.919272,-7.265253999999999
88,Cn0114,Publican's Licence (7-Day Ordinary),An Cruiscin Lan,An Cruiscin Lan,,82 Main Street,Cavan,,Co. Cavan,"An Cruiscin Lan, 82 Main Street, Cavan, Co. Cavan","82 Main St, Townparks, Cavan, H12 F3X9, Ireland",53.9888394,-7.3606068
89,Cn0164,Publican's Licence (7-Day Ordinary),Joseph Brady And Timothy Barry,Laragh House,,Stradone,,,Co. Cavan,"Laragh House, Stradone, Co. Cavan","Laragh House, Larah, Stradone, Co. Cavan, Ireland",53.9945761,-7.217962300000001
90,Cn0605,Publican's Licence (7-Day Ordinary),Gary O'reilly,The Hideaway Bar,,Cloncovit,Kilcogy,,Co. Cavan,"The Hideaway Bar, Cloncovit, Kilcogy, Co. Cavan","Cavan Rd, Leiter, Bailieborough, Co. Cavan, Ireland",53.9279315,-7.0035481
91,Dg0641,Publican's Licence (7-Day Ordinary),Arrow Bay Limited,Willows,,Main Street,Kingscourt,,Co. Cavan,"Willows, Main Street, Kingscourt, Co. Cavan","Main St, Lisasturrin, Kingscourt, Co. Cavan, Ireland",53.9049519,-6.8047508
92,Cn0591,Publican's Licence (7-Day Ordinary),Brian Conaty And Thomas Conaty,Langtrys,Brian Conaty,Granard Street,Ballyjamesduff,,Co. Cavan,"Langtrys, Granard Street, Ballyjamesduff, Co. Cavan","Granard Rd, Cornahilt, Ballyjamesduff, Co. Cavan, Ireland",53.8636,-7.207944
93,Cn0101,Publican's Licence (7-Day Ordinary),The Black Horse Inn 1999 Limited,The Blackhorse Inn,,2 Church Street,Cavan,,Co. Cavan,"The Blackhorse Inn, 2 Church Street, Cavan, Co. Cavan","Church St, Abbeyland, Cavan, Ireland",53.9933931,-7.359576400000001
94,Cn0596,Publican's Licence (7-Day Ordinary),Ronan Mccabe And Darragh Mccabe,Mccabe's,,Chapel Street,Ballyjamesduff,,Co. Cavan,"Mccabe's, Chapel Street, Ballyjamesduff, Co. Cavan","Chapel St, Cornahilt, Co. Cavan, Ireland",53.8630541,-7.2069897
95,Cn0338,Publican's Licence (7-Day Ordinary),J And C Vintners Limited,The Bridge Tavern,,Tullylorcan,Beglieve,Canningstown,Co. Cavan,"The Bridge Tavern, Tullylorcan, Beglieve, Canningstown, Co. Cavan","Tullylorcan, Co. Cavan, Ireland",53.9802948,-7.046678099999999
96,Cn0042,Publican's Licence (7-Day Ordinary),Thomas And Torbhealach Lyons,The Molly Maguires,Thomas Lyons,Main Street,Ballyconnell,,Co. Cavan,"The Molly Maguires, Main Street, Ballyconnell, Co. Cavan","R205, Doon, Co. Cavan, Ireland",54.1171847,-7.5826478
97,Cl0100,Publican's Licence (7-Day Ordinary),"Sean, Niall And Padraig Hannigan",Hannigans,Sean Hannigan,36 Market Street,Cootehill,,Co. Cavan,"Hannigans, 36 Market Street, Cootehill, Co. Cavan","38 Main st Cootehill Co. Cavan, Co. Cavan, Ireland",54.0738777,-7.0811739
98,Cl0067,Publican's Licence (7-Day Ordinary),Niall Hannigan And Padraig Hannigan And Sean Hannigan,Hannigans,Sean Hannigan,38 Market Street,Cootehill,,Co. Cavan,"Hannigans, 38 Market Street, Cootehill, Co. Cavan","38 Main st Cootehill Co. Cavan, Co. Cavan, Ireland",54.0738777,-7.0811739
99,Cn0163,Publican's Licence (7-Day Ordinary),Bradys The Cross Limited,Brady's The Cross,,Stradone,Clondargan,Laragh,Co. Cavan,"Brady's The Cross, Stradone, Clondargan, Laragh, Co. Cavan","Aghagolrick, Stradone, Co. Cavan, Ireland",53.98207,-7.2366319
100,1012785,Publican's Licence (7-Day Ordinary),Virginia Park Lodge Limited,The Virginia Park Lodge,,Virginia,,,Co. Cavan,"The Virginia Park Lodge, Virginia, Co. Cavan","Virginia, Co. Cavan, Ireland",53.834777,-7.0931049999999995
101,Cn0068,Publican's Licence (7-Day Ordinary),Helen Bridget Morgan,E O'reilly,,Bridge Street,Belturbet,,Co. Cavan,"E O'reilly, Bridge Street, Belturbet, Co. Cavan","27 Bridge St, Drumaveil North, Cootehill, Co. Cavan, H16 RT92, Ireland",54.07309009999999,-7.083869200000001
102,Cn0104,Publican's Licence (7-Day Ordinary),Farnham Arms Hotel Limited,Farnham Arms Hotel,Michael Shiels,Main Street,Cavan,,Co. Cavan,"Farnham Arms Hotel, Main Street, Cavan, Co. Cavan","Main, Street, Cavan, H12 Y6E4, Ireland",53.99127799999999,-7.360043
103,Cn0121,Publican's Licence (7-Day Ordinary),5th Avenue Taverns Limited,Arthurs Bar,James Farrell,34/36 Main Street,Cavan,,Co. Cavan,"Arthurs Bar, 34/36 Main Street, Cavan, Co. Cavan","28 Thomas St, Ushers, Dublin, Ireland",53.343154,-6.281616
104,Cn0045,Publican's Licence (7-Day Ordinary),Ciara Lee Holdings Limited,Lees,Laurence Joseph Lee,Main Street,Ballyconnell,,Co. Cavan,"Lees, Main Street, Ballyconnell, Co. Cavan","R205, Doon, Co. Cavan, Ireland",54.1166597,-7.583624200000001
105,Cn0159,Publican's Licence (7-Day Ordinary),San Fran 49ers Taverns Limited,Fitzpatricks Tavern,,Main Street,Lough Gowna,,Co. Cavan,"Fitzpatricks Tavern, Main Street, Lough Gowna, Co. Cavan","Loch Gowna Main street, Cavan, Ireland",53.8731771,-7.534035899999999
106,Cn0080,Publican's Licence (7-Day Ordinary),Adrian Mcguigan And Dermot Mcguigan,The Lawn,Adrian Mcguigan,The Lawn,Belturbet,,Co. Cavan,"The Lawn, The Lawn, Belturbet, Co. Cavan","9 The Lawn, Corporation Lands, Belturbet, Co. Cavan, H14 K573, Ireland",54.1016935,-7.4458
107,Cn0147,Publican's Licence (7-Day Ordinary),Dptk Limited,Kelly's,,Main Street,Killeshandra,,Co. Cavan,"Kelly's, Main Street, Killeshandra, Co. Cavan","Main St, Portaliff Glebe, Killashandra, Co. Cavan, Ireland",54.0157047,-7.529079299999999
108,Dg0690,Publican's Licence (7-Day Ordinary),Kingscourt Castle Limited,Cabra Castle,,Corney,Kingscourt,,Co. Cavan,"Cabra Castle, Corney, Kingscourt, Co. Cavan","Carrickmacross Rd, Cormey, Kingscourt, Co. Cavan, A82 EC64, Ireland",53.91373309999999,-6.7745750000000005
109,Cn0067,Publican's Licence (7-Day Ordinary),Pure Gold Taverns Limited,The Cosy Bar,Marion Dalton,5 Upper Bridge Street,Belturbet,,Co. Cavan,"The Cosy Bar, 5 Upper Bridge Street, Belturbet, Co. Cavan","7 Upper Bridge St, Corporation Lands, Belturbet, Co. Cavan, Ireland",54.1011073,-7.445819
110,Dg0585,Publican's Licence (7-Day Ordinary),Tyrells Public House Limited,Tyrrell's,Thomas Tyrell,Mullagh,,,Co. Cavan,"Tyrrell's, Mullagh, Co. Cavan","Main St, Rosehill, Mullagh, Co. Cavan, Ireland",53.8113652,-6.944518
111,Cl0058,Publican's Licence (7-Day Ordinary),Sandra Lee,The West End Bar,,Bridge Street,Cootehill,,Co. Cavan,"The West End Bar, Bridge Street, Cootehill, Co. Cavan","20 Bridge St, Drumaveil North, Co. Cavan, Ireland",54.0729814,-7.0831615
112,Cn0110,Publican's Licence (7-Day Ordinary),Jp Bars Limited,Jp's Bar And Lounge,Jp Mcphillips,57 Main Street,Cavan,,Co. Cavan,"Jp's Bar And Lounge, 57 Main Street, Cavan, Co. Cavan","57 Main St, Townparks, Cavan, Ireland",53.98946669999999,-7.3602849
113,Dg0657,Publican's Licence (7-Day Ordinary),Escallonia Limited,Failte,Kieran Donohoe,Main Street,Bailieborough,,Co. Cavan,"Failte, Main Street, Bailieborough, Co. Cavan","Main St, Tanderagee, Bailieborough, Co. Cavan, Ireland",53.9159193,-6.9691957
114,Cn0393,Publican's Licence (7-Day Ordinary),Fsm Catering Services Limited,The Derragarra Inn,,Butlers Bridge,,,Co. Cavan,"The Derragarra Inn, Butlers Bridge, Co. Cavan","Derragarra Inn, Derrygarra Lower, Butlers Bridge, Co. Cavan, Ireland",54.0429804,-7.375216399999998
115,Cn0117,Publican's Licence (7-Day Ordinary),Old Highbury Inns Limited,The New York Bar,Michael Mooney,62 Main Street,Cavan,,Co. Cavan,"The New York Bar, 62 Main Street, Cavan, Co. Cavan","Unit 1, Convent Buildin, 12 Main St, Abbeyland, Cavan, Ireland",53.991858,-7.359743
116,Dg0587,Publican's Licence (7-Day Ordinary),Smithform Holdings Sb Limited,Macgabhainns Bar,,Main Street,Virginia,,Co. Cavan,"Macgabhainns Bar, Main Street, Virginia, Co. Cavan","Main St, Rahardrum, Virginia, Co. Cavan, Ireland",53.83432029999999,-7.081275
117,Dg0597,Publican's Licence (7-Day Ordinary),Virginia Motel Limited,The Lakeside Manor,Meabh Brady,Burrenrea,Virginia,,Co. Cavan,"The Lakeside Manor, Burrenrea, Virginia, Co. Cavan","Dublin Road, Virginia, Co. Cavan, Ireland",53.818731,-7.05363
118,Dg0649,Publican's Licence (7-Day Ordinary),Sugarloaf Taverns Limited,The Square Bar,,Market Square,Bailieboro,,Co. Cavan,"The Square Bar, Market Square, Bailieboro, Co. Cavan","Market Square, Tanderagee, Bailieborough, Co. Cavan, Ireland",53.9156708,-6.9682185
119,Dg0663,Publican's Licence (7-Day Ordinary),N And J Hall Limited,Hall's,,Main Street,Bailieborough,,Co. Cavan,"Hall's, Main Street, Bailieborough, Co. Cavan","The Medical Hall, Main St, Beckscourt, Bailieborough, Co. Cavan, Ireland",53.91665920000001,-6.9708232
120,Cn0183,Publican's Licence (7-Day Ordinary),Old Highbury Inns Limited,The Slieve Rossa,Michael Mooney,Coleman Road,Cavan,,Co. Cavan,"The Slieve Rossa, Coleman Road, Cavan, Co. Cavan","Rossa Pl, Cavan, Ireland",53.989666,-7.3633199
121,Dg0694,Publican's Licence (7-Day Ordinary),Maria Mcphillips,Shercock House,,Main Street,Shercock,,Co. Cavan,"Shercock House, Main Street, Shercock, Co. Cavan","Market House, Main St, Lisdrumskea, Shercock, Co. Cavan, Ireland",53.9954834,-6.8993158
122,Dg0583,Publican's Licence (7-Day Ordinary),Rose Lynch,John Joe Lynch,,Main Street,Mullagh,Via Kells,Co. Cavan,"John Joe Lynch, Main Street, Mullagh, Via Kells, Co. Cavan","Main St, Mullagh, Co. Cavan, Ireland",53.8115204,-6.946396099999999
123,Dg0578,Publican's Licence (7-Day Ordinary),Michael Denning,Enagh House,,Enagh,Virginia,,Co. Cavan,"Enagh House, Enagh, Virginia, Co. Cavan","Bailieboro Road, Virginia, Co. Cavan, Rahardrum, Cavan, Ireland",53.83779,-7.073875999999999
124,Cn0877,Publican's Licence (7-Day Ordinary),Gee Bees Limited,The Orchard,,Drumalee,,,Co. Cavan,"The Orchard, Drumalee, Co. Cavan","Drumalee, Co. Cavan, Ireland",54.0015756,-7.3539496
125,Cl0072,Publican's Licence (7-Day Ordinary),Philomena Donohoe,Donohoe,,Market Street,Cootehill,,Co. Cavan,"Donohoe, Market Street, Cootehill, Co. Cavan","The Conall Building, Main St, Doon, Ballyconnell, Co. Cavan, Ireland",54.11657599999999,-7.583209999999999
126,Dg0603,Publican's Licence (7-Day Ordinary),Silverdove Limited,The Silver Dove Bar,,Ryefield,Munterconnaght,,Co. Cavan,"The Silver Dove Bar, Ryefield, Munterconnaght, Co. Cavan","Ryefield, Moate, Co. Cavan, Ireland",53.78711999999999,-7.053179800000001
127,Cn0610,Publican's Licence (7-Day Ordinary),Pius Denneny,"T/a Pius, Polo Grounds Pub",,Main Street,Kilnaleck,,Co. Cavan,"T/a Pius, Polo Grounds Pub, Main Street, Kilnaleck, Co. Cavan","Tonylion, Co. Cavan, Ireland",53.8622042,-7.3211072999999995
128,Dg0645,Publican's Licence (7-Day Ordinary),Dun A. Ri Taverns Limited,M And F's Bar,Sean Farrelly,37 Main Street,Kingscourt,,Co. Cavan,"M And F's Bar, 37 Main Street, Kingscourt, Co. Cavan","41 Main St, Lisasturrin, Co. Cavan, Ireland",53.905797,-6.8052231
129,Cn0125,Publican's Licence (7-Day Ordinary),Seamus Smith,The Top Of The Town,,Connolly Street,Cavan,,Co. Cavan,"The Top Of The Town, Connolly Street, Cavan, Co. Cavan","James Connolly St, Townparks, Cavan, Ireland",53.988269,-7.3603893
130,Dg0678,Publican's Licence (7-Day Ordinary),Delia O'mahony,O'mahony's,,Main Street,Shercock,,Co. Cavan,"O'mahony's, Main Street, Shercock, Co. Cavan","Main St, Lisdrumskea, Shercock, Co. Cavan, Ireland",53.9949614,-6.8978239
131,Dg0644,Publican's Licence (7-Day Ordinary),Sheila Smith,Gartlans,,Main Street,Kingscourt,,Co. Cavan,"Gartlans, Main Street, Kingscourt, Co. Cavan","5 Lower Main St, Lisasturrin, Kingscourt, Co. Cavan, Ireland",53.90712689999999,-6.8050342
132,Cn0091,Publican's Licence (7-Day Ordinary),Pleasure Dome Entertainment Limited,The Meadowview Lounge,Declan Sheridan,Tirquin,,,Co. Cavan,"The Meadowview Lounge, Tirquin, Co. Cavan","Dublin Rd, Tirquin, Cavan, Ireland",53.9835758,-7.3461921000000014
133,Cn0066,Publican's Licence (7-Day Ordinary),Shaun Molloy And Sons Limited,The Harbour,Geraldine Molloy,24 Barrack Hill,Belturbet,,Co. Cavan,"The Harbour, 24 Barrack Hill, Belturbet, Co. Cavan","Morrissey Park, Corporation Lands, Belturbet, Co. Cavan, Ireland",54.1027032,-7.4400349000000014
134,Cn0480,Publican's Licence (7-Day Ordinary),Toms Taverns Limited,The High Stool,,Annagh Street,Ballyjamesduff,,Co. Cavan,"The High Stool, Annagh Street, Ballyjamesduff, Co. Cavan","Anne St, Cornahilt, Ballyjamesduff, Co. Cavan, Ireland",53.863716,-7.2069763
135,Cn0437,Publican's Licence (7-Day Ordinary),The Lavey Inn Ltd,The Lavey Inn,,Knockanoark,Stradone,,Co. Cavan,"The Lavey Inn, Knockanoark, Stradone, Co. Cavan","Knockanoark, Co. Cavan, Ireland",53.9667038,-7.2292686
136,Cl0066,Publican's Licence (7-Day Ordinary),Advanced Retro Fit Limited,White Horse Hotel,Owen Tango,Market Street,Cootehill,,Co. Cavan,"White Horse Hotel, Market Street, Cootehill, Co. Cavan","Market St Market St, Killycramph, Cootehill, Co. Cavan, H16 NP73, Ireland",54.07501569999999,-7.0801561
137,Dg0674,Publican's Licence (7-Day Ordinary),Peter Burns,Burns,,Main Street,Shercock,,Co. Cavan,"Burns, Main Street, Shercock, Co. Cavan","27 Main St Lisdrumskea Shercock Co. Cavan A81 Y298 Main St, Lisdrumskea, Shercock, Co. Cavan, A81 Y298, Ireland",53.9947712,-6.8971710999999996
138,Dg0689,Publican's Licence (7-Day Ordinary),Peter Mckeown,Murtagh's Pub,,Main Street (1st Floor And Part Of Ground Floor),Kingscourt,,Co. Cavan,"Murtagh's Pub, Main Street (1st Floor And Part Of Ground Floor), Kingscourt, Co. Cavan","98 Main St, Lisasturrin, Kingscourt, Co. Cavan, Ireland",53.9053708,-6.8051046
139,Cn0620,Publican's Licence (7-Day Ordinary),Peter Brady,Bradys,,Main Street,Kilnaleck,,Co. Cavan,"Bradys, Main Street, Kilnaleck, Co. Cavan","Main St, Abbeyland, Cavan, Ireland",53.9908662,-7.360204199999999
140,Cn0138,Publican's Licence (7-Day Ordinary),Margaret Gilsenan,Gilsenans,,Main Street,Killeshandra,,Co. Cavan,"Gilsenans, Main Street, Killeshandra, Co. Cavan","Main St, Portaliff Glebe, Killashandra, Co. Cavan, Ireland",54.01336389999999,-7.527651799999998
141,Cn0604,Publican's Licence (7-Day Ordinary),Patrick Sheridan,Sheridans Pub,,Kilcogy,Granard,,Co. Cavan,"Sheridans Pub, Kilcogy, Granard, Co. Cavan","Granard, Co. Longford, Ireland",53.77693840000001,-7.5012256000000015
142,Cn0156,Publican's Licence (7-Day Ordinary),John Mccaffrey,Mccaffrey's,,Redhills,,,Co. Cavan,"Mccaffrey's, Redhills, Co. Cavan","Redhill Demesne, Co. Cavan, Ireland",54.0996679,-7.320118
143,Dg0647,Publican's Licence (7-Day Ordinary),Seamus Cooney,The Castle Inn,,Market Square,Bailieborough,,Co. Cavan,"The Castle Inn, Market Square, Bailieborough, Co. Cavan","Market Square, Tanderagee, Bailieborough, Co. Cavan, Ireland",53.9159598,-6.968588899999999
144,Cn0012,Publican's Licence (7-Day Ordinary),Enda Boylan,The Goal Post,,Main Street,Arva,,Co. Cavan,"The Goal Post, Main Street, Arva, Co. Cavan","Main St, Arvagh, Co. Cavan, Ireland",53.9236832,-7.582612200000001
145,Cl0073,Publican's Licence (7-Day Ordinary),Kieran Mullen,Mullens,,30/32 Market Street,Cootehill,,Co. Cavan,"Mullens, 30/32 Market Street, Cootehill, Co. Cavan","32 Market St, Drumaveil North, Cootehill, Co. Cavan, Ireland",54.0740752,-7.0809916
146,Dg0670,Publican's Licence (7-Day Ordinary),Aine Keenan,Murtaghs,,15 Main Street,Shercock,,Co. Cavan,"Murtaghs, 15 Main Street, Shercock, Co. Cavan","26 Main St, Tanderagee, Bailieborough, Co. Cavan, A82 EV76, Ireland",53.91619979999999,-6.969980199999999
147,Dg0635,Publican's Licence (7-Day Ordinary),Gerard Clarke,Clarkes Corner Bar,,Main Street,Kingscourt,,Co. Cavan,"Clarkes Corner Bar, Main Street, Kingscourt, Co. Cavan","98 Main St, Lisasturrin, Kingscourt, Co. Cavan, Ireland",53.9053708,-6.8051046
148,Cn0082,Publican's Licence (7-Day Ordinary),Dooncrellan Limited,The Seven Horse Shoes Hotel,,Main Street,Belturbet,,Co. Cavan,"The Seven Horse Shoes Hotel, Main Street, Belturbet, Co. Cavan","12 Main St, Corporation Lands, Belturbet, Co. Cavan, Ireland",54.1008667,-7.444041299999999
149,Cn0135,Publican's Licence (7-Day Ordinary),Mary Mcgovern,Glan Bar,,Gub,Glangevlin,,Co. Cavan,"Glan Bar, Gub, Glangevlin, Co. Cavan","Tullytiernan, Glangevlin, Co. Cavan, Ireland",54.1921467,-7.892649100000001
150,Cn0123,Publican's Licence (7-Day Ordinary),Cillian Mccann,Blessings,,92 & 93 Main Street,Cavan,,Co. Cavan,"Blessings, 92 & 93 Main Street, Cavan, Co. Cavan","92 Main St, Abbeyland, Cavan, Ireland",53.9916654,-7.3601009999999985
151,Dg0592,Publican's Licence (7-Day Ordinary),Peter Skelly Senior And Julia Skelly And Peter Skelly Junior,The Ramor Lodge Hotel,Peter Skelly Junior,Main Street,Virginia,,Co. Cavan,"The Ramor Lodge Hotel, Main Street, Virginia, Co. Cavan","5 Main St, Rahardrum, Virginia, Co. Cavan, A82 N9X7, Ireland",53.833863,-7.080184099999999
152,Cl0075,Publican's Licence (7-Day Ordinary),Francis Mcnally,The Bellamori Arms,,43 Market Street,Cootehill,,Co. Cavan,"The Bellamori Arms, 43 Market Street, Cootehill, Co. Cavan","43 Market St, Drumaveil North, Cootehill, Co. Cavan, H16 AK74, Ireland",54.07359659999999,-7.0808743
153,Cn0592,Publican's Licence (7-Day Ordinary),Bannons Bar Limited,The Royal Bar,Patrick Bannon,Ballyjamesduff,,,Co. Cavan,"The Royal Bar, Ballyjamesduff, Co. Cavan","Stradone St, Cornahilt, Ballyjamesduff, Co. Cavan, Ireland",53.8645112,-7.2050786
154,Cx0491,Publican's Licence (7-Day Ordinary),Gerard Maguire,F Maguire,,Blacklion,,,Co. Cavan,"F Maguire, Blacklion, Co. Cavan","Main St, Tuam, Blacklion, Co. Cavan, Ireland",54.2914304,-7.8765719
155,Cn0105,Publican's Licence (7-Day Ordinary),Richard Brady,Brady's,,23 Main Street,Cavan,,Co. Cavan,"Brady's, 23 Main Street, Cavan, Co. Cavan","Main St, Abbeyland, Cavan, Ireland",53.9908662,-7.360204199999999
156,Cn0112,Publican's Licence (7-Day Ordinary),Joseph Dunne,Dunne's Bar,,71 Main Street,Cavan,,Co. Cavan,"Dunne's Bar, 71 Main Street, Cavan, Co. Cavan","Main St, Townparks, Carrick-On-Shannon, Co. Leitrim, Ireland",53.9456242,-8.0955126
157,Cn0100,Publican's Licence (7-Day Ordinary),Declan Mccaul,Mccauls,,10 Bridge Street,Cavan,,Co. Cavan,"Mccauls, 10 Bridge Street, Cavan, Co. Cavan","10 Bridge St, Abbeyland, Cavan, Ireland",53.98985279999999,-7.361252500000001
158,Dg0639,Publican's Licence (7-Day Ordinary),Joseph Crosby,Freeman's,,Main Street,Kingscourt,,Co. Cavan,"Freeman's, Main Street, Kingscourt, Co. Cavan","Main St, Lisasturrin, Kingscourt, Co. Cavan, Ireland",53.9049519,-6.8047508
159,Cn0072,Publican's Licence (7-Day Ordinary),Brendan Fay,The Widows Bar,,Main Street,Belturbet,,Co. Cavan,"The Widows Bar, Main Street, Belturbet, Co. Cavan","Main St, Corporation Lands, Co. Cavan, Ireland",54.1008834,-7.443847399999999
160,Cn0594,Publican's Licence (7-Day Ordinary),Shirley Byers,Crowes Corner,,Dublin Street,Ballyjamesduff,,Co. Cavan,"Crowes Corner, Dublin Street, Ballyjamesduff, Co. Cavan","Dublin St, Cornahilt, Ballyjamesduff, Co. Cavan, Ireland",53.86443149999999,-7.2062225
161,Dg0677,Publican's Licence (7-Day Ordinary),Paul Reilly,Lynchs Bar,,Main Street,Shercock,,Co. Cavan,"Lynchs Bar, Main Street, Shercock, Co. Cavan","Kilbride St, Puttaghan, Tullamore, Co. Offaly, Ireland",53.27661999999999,-7.495196999999999
162,Cn0342,Publican's Licence (7-Day Ordinary),John P. Fitzpatrick,The Hillside Tavern,,Killeshandra,,,Co. Cavan,"The Hillside Tavern, Killeshandra, Co. Cavan",,,
163,Cn0601,Publican's Licence (7-Day Ordinary),Blaithin O'reilly,Glann Bar And Lounge,,Glan,Kilcogy,,Co. Cavan,"Glann Bar And Lounge, Glan, Kilcogy, Co. Cavan","Mullaghoran, Co. Cavan, Ireland",53.8374919,-7.4338878
164,Cn0011,Publican's Licence (7-Day Ordinary),Hugh Brady,Hughies,,Main Street,Arva,,Co. Cavan,"Hughies, Main Street, Arva, Co. Cavan","Main St, Cannaboe, Ballinamore, Co. Leitrim, Ireland",54.0520095,-7.804125099999999
165,Cn0039,Publican's Licence (7-Day Ordinary),Woodford Arms Limited,The Woodford Arms,Colleen Maguire,Derryginny,Ballyconnell,,Co. Cavan,"The Woodford Arms, Derryginny, Ballyconnell, Co. Cavan","Bridge St, Cullyleenan, Ballyconnell, Co. Cavan, Ireland",54.11594789999999,-7.5834017
166,Cn0003,Publican's Licence (7-Day Ordinary),Emmett Sloane,The Brewery,,Main Street,Arva,,Co. Cavan,"The Brewery, Main Street, Arva, Co. Cavan","R198, Drumnawall, Co. Cavan, Ireland",53.92378,-7.5845533
167,Cn0046,Publican's Licence (7-Day Ordinary),Kevin Taylor,The Brandywell Bar,,Ballyconnell,,,Co. Cavan,"The Brandywell Bar, Ballyconnell, Co. Cavan","R205, Doon, Co. Cavan, Ireland",54.11685139999999,-7.583253999999998
168,Cn0590,Publican's Licence (7-Day Ordinary),Mary O'reilly,Colm's Bar,,Oldcastle Road,Ballyjamesduff,,Co. Cavan,"Colm's Bar, Oldcastle Road, Ballyjamesduff, Co. Cavan","Oldcastle Rd, Ballyjamesduff, Co. Cavan, Ireland",53.85825879999999,-7.2036906
169,Cn0174,Publican's Licence (7-Day Ordinary),Anthony (otherwise Tony) Cullen,The Stables Bar,,Bridge Street/main Street,Swanlinbar,,Co. Cavan,"The Stables Bar, Bridge Street/main Street, Swanlinbar, Co. Cavan","Main St, Swanlinbar, Co. Cavan, Ireland",54.1940237,-7.704355399999999
170,Cn0143,Publican's Licence (7-Day Ordinary),Michael O'reilly,Shamrock Inn,Michael O'reilly,Main Street,Killeshandra,,Co. Cavan,"Shamrock Inn, Main Street, Killeshandra, Co. Cavan","Main St, Portaliff Glebe, Killashandra, Co. Cavan, Ireland",54.01336389999999,-7.527651799999998
171,Cn0078,Publican's Licence (7-Day Ordinary),John Flynn,Flynns Bar,,Kilconny,Belturbet,,Co. Cavan,"Flynns Bar, Kilconny, Belturbet, Co. Cavan","Kilconny, Ballyconnell Road, Belturbet, Co. Cavan, Ireland",54.102111,-7.450875999999999
172,Cn0040,Publican's Licence (7-Day Ordinary),Terence Mcgovern,Lizzies,,Ballyconnell,,,Co. Cavan,"Lizzies, Ballyconnell, Co. Cavan","Church St, Doon, Ballyconnell, Co. Cavan, Ireland",54.11730009999999,-7.586307399999999
173,Cx0488,Publican's Licence (7-Day Ordinary),The Dugout Pub Limited,The Dugout,Stiofan Mullally,Toam,Blacklion,,Co. Cavan,"The Dugout, Toam, Blacklion, Co. Cavan","An Bonnán Buí Way, Tuam, Blacklion, Co. Cavan, Ireland",54.2909805,-7.874738299999999
174,Cn0134,Publican's Licence (7-Day Ordinary),Brian Boylan,The Tank,,Carrickaboy,,,Co. Cavan,"The Tank, Carrickaboy, Co. Cavan","Denncross, Carrickaboy, Co. Cavan, Ireland",53.9308565,-7.3212726
175,Dg0638,Publican's Licence (7-Day Ordinary),Cabra Bars Limited,Malones Bar,,Church Street,Kingscourt,,Co. Cavan,"Malones Bar, Church Street, Kingscourt, Co. Cavan","Main St, Lisasturrin, Kingscourt, Co. Cavan, Ireland",53.9044515,-6.804848199999999
176,Cn0161,Publican's Licence (7-Day Ordinary),White's Of Loch Gowna Limited,Whites,Mairead White,Lough Gowna,,,Co. Cavan,"Whites, Lough Gowna, Co. Cavan","1 Lough View, Loch Gowna, Co. Cavan, H12 HD98, Ireland",53.8737878,-7.533784
177,Cn0010,Publican's Licence (7-Day Ordinary),John Lynch,Lynch's,,Main Street,Arva,,Co. Cavan,"Lynch's, Main Street, Arva, Co. Cavan","Pound St, Drumalt, Arvagh, Co. Cavan, Ireland",53.9241134,-7.583031399999999
178,Cn0404,Publican's Licence (7-Day Ordinary),Patrick Anthony Brady,The Shantully Inn,,Crossdoney,,,Co. Cavan,"The Shantully Inn, Crossdoney, Co. Cavan","Shantully, Crossdoney, Co. Cavan, Ireland",53.953361,-7.434547899999999
179,Cn0054,Publican's Licence (7-Day Ordinary),Paula Cosgrove,Ballymac Inn,,Ballymagovern,Garadice P O,,Co. Cavan,"Ballymac Inn, Ballymagovern, Garadice P O, Co. Cavan","Garadice, Co. Leitrim, Ireland",54.06122999999999,-7.737891400000001
180,Dg0659,Publican's Licence (7-Day Ordinary),Patrick Owens,Kangley's Pub,,Main Street,Bailieborough,,Co. Cavan,"Kangley's Pub, Main Street, Bailieborough, Co. Cavan","Main St, Beckscourt, Bailieborough, Co. Cavan, Ireland",53.91687659999999,-6.9708872
181,Cn0057,Publican's Licence (7-Day Ordinary),Peter Noel Smith,Rocks Of Bawn,,Bawnboy,,,Co. Cavan,"Rocks Of Bawn, Bawnboy, Co. Cavan","The Rocks, Crossdoney, Co. Cavan, Ireland",53.957349,-7.434313
182,Cn0059,Publican's Licence (7-Day Ordinary),Derrynaflan Catering Limited,Caseys Steak Bar,Ciaran Casey,Ballinagh,,,Co. Cavan,"Caseys Steak Bar, Ballinagh, Co. Cavan","Main St, Bellananagh, Ballinagh, Co. Cavan, Ireland",53.932216,-7.408003
183,Cn0649,Publican's Licence (7-Day Ordinary),Christina Mcenroe,The Bridge Inn,,Mountnugent,Kilbride,,Co. Cavan,"The Bridge Inn, Mountnugent, Kilbride, Co. Cavan","Kilbride, Co. Cavan, Ireland",53.8333977,-7.267089299999999
184,Dg0594,Publican's Licence (7-Day Ordinary),Blackwater Bar Limited,The Whistlestop,,Main Street,Virginia,,Co. Cavan,"The Whistlestop, Main Street, Virginia, Co. Cavan","5 Main St, Rahardrum, Virginia, Co. Cavan, A82 N9X7, Ireland",53.8348337,-7.0823719
185,Cx0204,Publican's Licence (7-Day Ordinary),Brian Wynne,The Shannon House,,Dowra,,,Co. Cavan,"The Shannon House, Dowra, Co. Cavan","Dowra, Co. Cavan, Ireland",54.1900827,-8.0162777
186,Cn0074,Publican's Licence (7-Day Ordinary),Ann Fitzpatrick,The Duckin Stool,,Main Street,Belturbet,,Co. Cavan,"The Duckin Stool, Main Street, Belturbet, Co. Cavan","Main St, Corporation Lands, Belturbet, Co. Cavan, Ireland",54.1008355,-7.444153699999999
187,Dg0637,Publican's Licence (7-Day Ordinary),Aisling Mcmahon,The Wishing Well,,Main Street,Kingscourt,,Co. Cavan,"The Wishing Well, Main Street, Kingscourt, Co. Cavan","Main St, Lisasturrin, Kingscourt, Co. Cavan, Ireland",53.906175,-6.80483
188,Cn0051,Publican's Licence (7-Day Ordinary),Eamonn Donohoe,Donohoes Lounge Bar,,Ballyhaise,,,Co. Cavan,"Donohoes Lounge Bar, Ballyhaise, Co. Cavan","98 Main St, Lisasturrin, Kingscourt, Co. Cavan, Ireland",53.9053708,-6.8051046
189,Dg0653,Publican's Licence (7-Day Ordinary),Michael Giles,M. Giles And Sons,,Barrack Street,Bailieborough,,Co. Cavan,"M. Giles And Sons, Barrack Street, Bailieborough, Co. Cavan","Barrack St, Tanderagee, Bailieborough, Co. Cavan, Ireland",53.9153971,-6.969545999999999
190,Cn0146,Publican's Licence (7-Day Ordinary),The Loughbawn Lodge Limited,Loughbawn Hotel,,Main Street,Killeshandra,,Co. Cavan,"Loughbawn Hotel, Main Street, Killeshandra, Co. Cavan","Main St, Portaliff Glebe, Killeshandra, Co. Cavan, Ireland",54.0137769,-7.5281641000000015
191,Cn0083,Publican's Licence (7-Day Ordinary),Michael Fitzpatrick Architect Limited,High Ball Inn,,Butlersbridge,,,Co. Cavan,"High Ball Inn, Butlersbridge, Co. Cavan","Derrygarra Lower, Butlers Bridge, Co. Cavan, Ireland",54.0452119,-7.3769588
192,Cn0588,Publican's Licence (7-Day Ordinary),Bin Zhuang,Reasons,,Granard Street,Ballyjamesduff,,Co. Cavan,"Reasons, Granard Street, Ballyjamesduff, Co. Cavan","Granard St, Cornahilt, Ballyjamesduff, Co. Cavan, Co. Cavan, Ireland",53.86360819999999,-7.208035000000001
193,Cn0050,Publican's Licence (7-Day Ordinary),Patrick Brady,Brady Brothers,,Ballyhaise,,,Co. Cavan,"Brady Brothers, Ballyhaise, Co. Cavan","Raheg, Ballyhaise, Co. Cavan, Ireland",54.0473393,-7.3155094
194,Cn0113,Publican's Licence (7-Day Ordinary),Amanda Smith,Maura's Bar,,84/86 Main Street,Cavan,,Co. Cavan,"Maura's Bar, 84/86 Main Street, Cavan, Co. Cavan","86 Main St, Townparks, Cavan, H12 P2K2, Ireland",53.9887393,-7.360616299999999
195,Cn0611,Publican's Licence (7-Day Ordinary),Mary Boylan,Boylans Bar And Lounge,,Kilnaleck,,,Co. Cavan,"Boylans Bar And Lounge, Kilnaleck, Co. Cavan","29 Market St, Cappocksgreen, Ardee, Co. Louth, Ireland",53.85724370000001,-6.5400658
196,Cn0176,Publican's Licence (7-Day Ordinary),Mary Feehan,Feehans Pub,,Cooratillon,Corlough,Bawnboy,Co. Cavan,"Feehans Pub, Cooratillon, Corlough, Bawnboy, Co. Cavan","R202, Muineal, Co. Cavan, Ireland",54.11892030000001,-7.7478236
197,Cn0106,Publican's Licence (7-Day Ordinary),John Sheridan,The White Star,,35 Main Street,Cavan,,Co. Cavan,"The White Star, 35 Main Street, Cavan, Co. Cavan","Main St, Abbeyland, Cavan, Ireland",53.9903947,-7.3602712000000015
198,Cn0599,Publican's Licence (7-Day Ordinary),Kiernans Pub Limited,Kiernan,,Aghakilmore,Clanmahon,Ballymachugh,Co. Cavan,"Kiernan, Aghakilmore, Clanmahon, Ballymachugh, Co. Cavan","Aghakilmore, Callowhill, Co. Cavan, Ireland",53.8401977,-7.369859099999999
199,Cl0127,Publican's Licence (7-Day Ordinary),Niall O'leary,Paddy O'leary,,Bridge Street,Cootehill,,Co. Cavan,"Paddy O'leary, Bridge Street, Cootehill, Co. Cavan","14 Bridge St, Drumaveil North, Cootehill, Co. Cavan, Ireland",54.0728307,-7.0828685
200,Cn0097,Publican's Licence (7-Day Ordinary),Mcginnity's Bar And Lounge Bar Limited,Mcginnity's Bar,,Coleman Road,Cavan,,Co. Cavan,"Mcginnity's Bar, Coleman Road, Cavan, Co. Cavan","1 Rossa Pl, Townparks, Cavan, Ireland",53.98946129999999,-7.363038899999999
201,Cn0139,Publican's Licence (7-Day Ordinary),Lucy Hayes And Joseph Hayes And Jim Hayes,Royal Hotel,Jim Hayes,Killeshandra,,,Co. Cavan,"Royal Hotel, Killeshandra, Co. Cavan","Main St, Portaliff Glebe, Killeshandra, Co. Cavan, Ireland",54.0137769,-7.5281641000000015
202,Cn0607,Publican's Licence (7-Day Ordinary),Ciaran Fitzsimons,Fitzsimons,,Kilgolagh,Finea,,Co. Cavan,"Fitzsimons, Kilgolagh, Finea, Co. Cavan","21/22 Wellington Quay, Temple Bar, Dublin, Ireland",53.345569,-6.265124999999999
203,Cn0124,Publican's Licence (7-Day Ordinary),Louise Mcconnell,Delaneys Bar,,7 Connolly Street,Cavan,,Co. Cavan,"Delaneys Bar, 7 Connolly Street, Cavan, Co. Cavan","James Connolly St, Townparks, Cavan, Ireland",53.9884581,-7.360399999999999
204,Cn0084,Publican's Licence (7-Day Ordinary),Agatha Smith,Con J.smith,,Butlersbridge,,,Co. Cavan,"Con J.smith, Butlersbridge, Co. Cavan","Derrygarra Lower, Butlers Bridge, Co. Cavan, Ireland",54.0452119,-7.3769588
205,Cn0589,Publican's Licence (7-Day Ordinary),Francis Mcbreen,Cheers Bar,,Main Street,(otherwise Anne Street),Ballyjamesduff,Co. Cavan,"Cheers Bar, Main Street, (otherwise Anne Street), Ballyjamesduff, Co. Cavan","Anne St, Co. Cavan, Ireland",53.8634862,-7.2081737
206,Cn0151,Publican's Licence (7-Day Ordinary),Austin Reilly,The Kesh Bar,,Gortnakesh,Cavan,,Co. Cavan,"The Kesh Bar, Gortnakesh, Cavan, Co. Cavan","Gortnakesh, Co. Cavan, Ireland",53.9757264,-7.352611800000001
207,Cl0059,Publican's Licence (7-Day Ordinary),Kenneth Connolly,Sean Mcbrien Connolly's Bar,,Bridge Street,Cootehill,,Co. Cavan,"Sean Mcbrien Connolly's Bar, Bridge Street, Cootehill, Co. Cavan","Bridge St, Cootehill, Co. Cavan, Ireland",54.0751309,-7.0859659
208,Cn0119,Publican's Licence (7-Day Ordinary),Mark Lynch,Kittys,,Main Street,Cavan,,Co. Cavan,"Kittys, Main Street, Cavan, Co. Cavan","Main St, Townparks, Cavan, Ireland",53.9894712,-7.360575099999999
209,Dg0591,Publican's Licence (7-Day Ordinary),Edmond Matthews,James Matthews,,Main Street,Virginia.,,Co. Cavan,"James Matthews, Main Street, Virginia., Co. Cavan","Main St, Rahardrum, Virginia, Co. Cavan, Ireland",53.8347744,-7.082624999999999
210,Cn0179,Publican's Licence (7-Day Ordinary),Tullyvin Taverns Limited,Village Inn,,Tullyvin,Cootehill,,Co. Cavan,"Village Inn, Tullyvin, Cootehill, Co. Cavan","Cornabraher, Tullyvin, Co. Cavan, Ireland",54.0499569,-7.1448497
211,Dg0476,Publican's Licence (7-Day Ordinary),Eugene Fox,Fox's,,Main Street,Bailieborough,,Co. Cavan,"Fox's, Main Street, Bailieborough, Co. Cavan","Main St, Beckscourt, Bailieborough, Co. Cavan, Ireland",53.91696349999999,-6.9705623
212,Cn0061,Publican's Licence (7-Day Ordinary),Seamus Brady,Bradys,,Ballinagh,,,Co. Cavan,"Bradys, Ballinagh, Co. Cavan","Main St, Bellananagh, Ballinagh, Co. Cavan, Ireland",53.93182400000001,-7.407273999999999
213,Cn0948,Publican's Licence (7-Day Ordinary),Philip Mcmahon,Mcmahons Cafe Bar,,Main Street,Cavan,,Co. Cavan,"Mcmahons Cafe Bar, Main Street, Cavan, Co. Cavan","97 Main St, Abbeyland, Cavan, Ireland",53.9910112,-7.360177299999998
214,Cn0081,Publican's Licence (7-Day Ordinary),Elizabeth (lily) O'connor,The Railway Bar,,Diamond,Belturbet,,Co. Cavan,"The Railway Bar, Diamond, Belturbet, Co. Cavan","No, 4 The Diamond, Belturbet, Co. Cavan, Ireland",54.100623,-7.444873
215,Dg0582,Publican's Licence (7-Day Ordinary),Michael Farrelly And Tracey Clarke,Killians Lodge Hotel,,48 Main Street,Mullagh,,Co. Cavan,"Killians Lodge Hotel, 48 Main Street, Mullagh, Co. Cavan","Main St, Rosehill, Mullagh, Co. Cavan, Ireland",53.8113453,-6.9454036
216,Cn0149,Publican's Licence (7-Day Ordinary),Seamus O'reilly,Drumlane Bar,,Milltown,Belturbet,,Co. Cavan,"Drumlane Bar, Milltown, Belturbet, Co. Cavan","No, 4 The Diamond, Belturbet, Co. Cavan, Ireland",54.100623,-7.444873
217,Cn0619,Publican's Licence (7-Day Ordinary),Thomas Michael Hill,Fionas Bar,,Main Street,Kilnaleck,,Co. Cavan,"Fionas Bar, Main Street, Kilnaleck, Co. Cavan","Flat 1, Upper Main St, Tonylion, Kilnaleck, Co. Cavan, Ireland",53.8617381,-7.320852200000001
218,Dg0716,Publican's Licence (7-Day Ordinary),Philip O'reilly,Lisgrey House,,Lisgrey,Virginia,,Co. Cavan,"Lisgrey House, Lisgrey, Virginia, Co. Cavan","Lisgrey Cross, Lisgrea, Virginia, Co. Cavan, Ireland",53.8656741,-7.1159091
219,Cx0493,Publican's Licence (7-Day Ordinary),Tony And Colin Fitzpatrick,Eamons Piano Bar,,Blacklion,,,Co. Cavan,"Eamons Piano Bar, Blacklion, Co. Cavan","An Bonnán Buí Way, Tuam, Blacklion, Co. Cavan, Ireland",54.2909805,-7.874738299999999
220,Cn0615,Publican's Licence (7-Day Ordinary),Patricia Smyth,Smyths Bar,,Main Street,Kilnaleck,,Co. Cavan,"Smyths Bar, Main Street, Kilnaleck, Co. Cavan","Flat 1, Upper Main St, Tonylion, Kilnaleck, Co. Cavan, Ireland",53.8617381,-7.320852200000001
221,Cn0001,Publican's Licence (7-Day Ordinary),Bernard Fitzpatrick,Fitzpatrick's,,Main Street,Arva,,Co. Cavan,"Fitzpatrick's, Main Street, Arva, Co. Cavan","Loch Gowna Main street, Cavan, Ireland",53.8731771,-7.534035899999999
222,Dg0656,Publican's Licence (7-Day Ordinary),Barmult Investments Limited,The Benjam Inn,Patrick Mceneaney,Main Street,Bailieborough,,Co. Cavan,"The Benjam Inn, Main Street, Bailieborough, Co. Cavan","Main St, Tanderagee, Bailieborough, Co. Cavan, Ireland",53.9160804,-6.9695699
223,Dg0581,Publican's Licence (7-Day Ordinary),Niall Daly And Peter Mahon,Mcnamee's,Niall Daly,Main Street,Mullagh,,Co. Cavan,"Mcnamee's, Main Street, Mullagh, Co. Cavan","H62 XW92, 12 Bride St, Loughrea, Co. Galway, Ireland",53.19923439999999,-8.5646653
224,Cn0076,Publican's Licence (7-Day Ordinary),Sean Maguire,Yukon Bar,,Holborn Hill,Belturbet,,Co. Cavan,"Yukon Bar, Holborn Hill, Belturbet, Co. Cavan","Holborn Hill, Corporation Lands, Belturbet, Co. Cavan, Ireland",54.1018527,-7.4417381
225,Cn0602,Publican's Licence (7-Day Ordinary),Michael Fegan,Micsin's,,Kilcogy,Granard,,Co. Cavan,"Micsin's, Kilcogy, Granard, Co. Cavan","Granard, Co. Longford, Ireland",53.77693840000001,-7.5012256000000015
226,Cn0047,Publican's Licence (7-Day Ordinary),Robert Crowe,The Crow's Nest,,Main Street,Ballyconnell,,Co. Cavan,"The Crow's Nest, Main Street, Ballyconnell, Co. Cavan","R205, Doon, Co. Cavan, Ireland",54.1170495,-7.5828785
227,Cn0052,Publican's Licence (7-Day Ordinary),Timothy Duggan,The Flying Saucer,,Drumliffe,Redhills,,Co. Cavan,"The Flying Saucer, Drumliffe, Redhills, Co. Cavan","18 Main St, Drumliff, Belturbet, Co. Cavan, H14 TP48, Ireland",54.0651612,-7.3358655
228,Cn0593,Publican's Licence (7-Day Ordinary),Brian Mcbride And John Mcbride,Mcbrides,Brian Mcbride,Market Street,Ballyjamesduff,,Co. Cavan,"Mcbrides, Market Street, Ballyjamesduff, Co. Cavan","Market St, Cornahilt, Ballyjamesduff, Co. Cavan, Ireland",53.8644256,-7.207211000000001
229,Cx0203,Publican's Licence (7-Day Ordinary),Joseph Mel Mcloughlin,Melrose Inn,,Dowra,,,Co. Cavan,"Melrose Inn, Dowra, Co. Cavan","Dowra, Co. Leitrim, Ireland",54.1900831,-8.015435
230,Dg0642,Publican's Licence (7-Day Ordinary),Gabriel Cullivan And Breda Cullivan,The Porterhouse,Gabriel Cullivan,Main Street,Kingscourt,,Co. Cavan,"The Porterhouse, Main Street, Kingscourt, Co. Cavan","Main St, Lisasturrin, Kingscourt, Co. Cavan, Ireland",53.9049519,-6.8047508
231,Cn0127,Publican's Licence (7-Day Ordinary),Martin Gaffney Limited,The Abbey Bar,,Railway Road,Cavan,,Co. Cavan,"The Abbey Bar, Railway Road, Cavan, Co. Cavan","Coleman Road, Abbeyland, Cavan, Ireland",53.9896178,-7.363390099999999
232,Cn0055,Publican's Licence (7-Day Ordinary),Bryan Mckiernan,The Keepers Arms,,Kilsob,Bawnboy,,Co. Cavan,"The Keepers Arms, Kilsob, Bawnboy, Co. Cavan","Corrasmongan, Bawnboy, Co. Cavan, Ireland",54.1205097,-7.676627
233,Dg0577,Publican's Licence (7-Day Ordinary),Thomas Smyth,Smyths Bar,,Relaghbeg,Mullagh,,Co. Cavan,"Smyths Bar, Relaghbeg, Mullagh, Co. Cavan","Denmark St, Limerick, V94 K6WH, Ireland",52.6640553,-8.622281
234,Enp0029,Publican's Licence (7-Day Ordinary),Anne Boland Tubridy,M Tubridy,,Main Street,Cooraclare,,Co. Clare,"M Tubridy, Main Street, Cooraclare, Co. Clare","Main Street, Cooraclare, Co. Clare, Ireland",52.701926,-9.419027
235,Enp0351,Publican's Licence (7-Day Ordinary),Western Public House Limited,Knoxs,Michael Dennehy,18 Abbey Street,Ennis,,Co. Clare,"Knoxs, 18 Abbey Street, Ennis, Co. Clare","18 Abbey St, Lifford, Ennis, Co. IE, V95 AX83, Ireland",52.8449404,-8.9823711
236,Enp0020,Publican's Licence (7-Day Ordinary),Patrick O'connor,O'connors Bar,,Cloonadrum,Mullagh,,Co. Clare,"O'connors Bar, Cloonadrum, Mullagh, Co. Clare","Fisher St, Ballyvara, Doolin, Co. Clare, V95 FY67, Ireland",53.012567,-9.386521000000002
237,Enp0011,Publican's Licence (7-Day Ordinary),Martin Moloney,The Fergus Inn,,Clarecastle,,,Co. Clare,"The Fergus Inn, Clarecastle, Co. Clare","Latoon North, Newmarket on Fergus, Co. Clare, Ireland",52.789468,-8.915143
238,Enp0259,Publican's Licence (7-Day Ordinary),Michael A. O'brien And Margaret O'brien,Michael A's,,Main Street,Miltown Malbay,,Co. Clare,"Michael A's, Main Street, Miltown Malbay, Co. Clare","Main St, Leagard North, Co. Clare, Ireland",52.8557587,-9.4007728
239,Enp0280,Publican's Licence (7-Day Ordinary),The Hunters Rest Limited,The Hunter's Lodge,,Newmarket On Fergus,,,Co. Clare,"The Hunter's Lodge, Newmarket On Fergus, Co. Clare","Ennis road, Newmarket-on-Fergus, Co. Clare, Ireland",52.760713,-8.896323899999999
240,Enp0270,Publican's Licence (7-Day Ordinary),Armada Hotel Holdings Limited,Burke's Armada Hotel,John Burke,Spanish Point,,,Co. Clare,"Burke's Armada Hotel, Spanish Point, Co. Clare","Spanish Point, Miltown Malbay, Co. Clare, Ireland",52.8451737,-9.4365209
241,Enp0169,Publican's Licence (7-Day Ordinary),David Mitchell,Murphy's,,The Square,Grattan Street,Kilkee,Co. Clare,"Murphy's, The Square, Grattan Street, Kilkee, Co. Clare","Dough, Kilkee, Co. Clare, Ireland",52.679947,-9.646246
242,Enp0240,Publican's Licence (7-Day Ordinary),John Connolly,Rathbaun Hotel,,Lisdonnvarna,,,Co. Clare,"Rathbaun Hotel, Lisdonnvarna, Co. Clare","Main St, Rathbaun, Lisdoonvarna, Co. Clare, Ireland",53.0289,-9.289748999999999
243,Lip1369,Publican's Licence (7-Day Ordinary),Mcmahon Entertainments Limited,The Daggers,,Parkroe,Ardnacrusha,,Co. Clare,"The Daggers, Parkroe, Ardnacrusha, Co. Clare","Parkroe, Co. Clare, Ireland",52.712892,-8.6038898
244,Enp0089,Publican's Licence (7-Day Ordinary),Mary O'keeffe,The Corner Bar,,89 Parnell Street,Ennis,,Co. Clare,"The Corner Bar, 89 Parnell Street, Ennis, Co. Clare","74 Parnell St, Clonroad Beg, Ennis, Co. Clare, Ireland",52.8436107,-8.9869072
245,Lip0828,Publican's Licence (7-Day Ordinary),Bartholomew O'riordan,The Half Barrell,,Whitegate,,,Co. Clare,"The Half Barrell, Whitegate, Co. Clare","Whitegate, Lakyle, Whitegate, Co. Clare, Ireland",52.9518694,-8.3719086
246,Enp0407,Publican's Licence (7-Day Ordinary),Gallaghers Seafood Restaurant Limited,Gallaghers Seafood Restaurant,,Bunratty,,,Co. Clare,"Gallaghers Seafood Restaurant, Bunratty, Co. Clare","Bunratty West, Bunratty, Co. Clare, Ireland",52.699105,-8.816455999999999
247,Lip0948,Publican's Licence (7-Day Ordinary),Joseph Gallagher,Gallahers Bar,,Kilkishen,,,Co. Clare,"Gallahers Bar, Kilkishen, Co. Clare","Church St, Tullamore, Co. Offaly, Ireland",53.2750808,-7.491415
248,Enp0097,Publican's Licence (7-Day Ordinary),Francis Daniels,The Gallows Inn,,Turnpike Road,Ennis,,Co. Clare,"The Gallows Inn, Turnpike Road, Ennis, Co. Clare","160 Bandon Rd, The Lough, Cork, T12 TH22, Ireland",51.8926277,-8.4813385
249,Lip0765,Publican's Licence (7-Day Ordinary),Patrick O'brien,The Blacksticks Bar,,Silvergrove,O'callaghan's Mills,,Co. Clare,"The Blacksticks Bar, Silvergrove, O'callaghan's Mills, Co. Clare","Silvergrove, Co. Clare, Ireland",52.8622301,-8.6524366
250,Lip0826,Publican's Licence (7-Day Ordinary),Dermot O'kelly,Lucas Bar,,Whitegate,,,Co. Clare,"Lucas Bar, Whitegate, Co. Clare","74 Parnell St, Clonroad Beg, Ennis, Co. Clare, Ireland",52.8436107,-8.9869072
251,Lip0810,Publican's Licence (7-Day Ordinary),Damien Considine Consulting Services Limited,Setrights Tavern,,Setrights Cross,Cratloe,,Co. Clare,"Setrights Tavern, Setrights Cross, Cratloe, Co. Clare","Laghile, Co. Clare, Ireland",52.6940383,-8.758062899999999
252,Enp0306,Publican's Licence (7-Day Ordinary),Arroba Limited,Supervalue,Gerry Lyons,Tulla,,,Co. Clare,"Supervalue, Tulla, Co. Clare","Main St, Tulla, Clare, Ireland",52.86747800000001,-8.7575519
253,Enp0154,Publican's Licence (7-Day Ordinary),Catherine Frances Farren,Tir Na Nóg,,Carrowreagh,Cranny,,Co. Clare,"Tir Na Nóg, Carrowreagh, Cranny, Co. Clare","Carrowreagh East, Cranny, Co. Clare, Ireland",52.6924765,-9.2254726
254,Lip1357,Publican's Licence (7-Day Ordinary),Limerick Inn Property Limited,The Creamery Bar And Restaurant,,Bunratty,,,Co. Clare,"The Creamery Bar And Restaurant, Bunratty, Co. Clare","Old Bunratty Rd, Bunratty West, Bunratty, Co. Clare, V95 CC85, Ireland",52.6964371,-8.813104899999999
255,Enp0333,Publican's Licence (7-Day Ordinary),Camison Limited,Auburn Lodge Hotel,,Gort Road,Ennis,,Co. Clare,"Auburn Lodge Hotel, Gort Road, Ennis, Co. Clare","Gort Rd, Ballycorey, Ennis, Co. Clare, Ireland",52.865538,-8.9811858
256,Enp0013,Publican's Licence (7-Day Ordinary),Edward Tonge,Navins Bar,,Barrack Street,Clarecastle,Ennis,Co. Clare,"Navins Bar, Barrack Street, Clarecastle, Ennis, Co. Clare","Barrack St, Clare Commons, Clarecastle, Co. Clare, Ireland",52.8147284,-8.9660315
257,Enp0346,Publican's Licence (7-Day Ordinary),John Daffy,Daffy's Bar,,Main Street,Corofin,,Co. Clare,"Daffy's Bar, Main Street, Corofin, Co. Clare","Main St, Corofin, Co. Clare, Ireland",52.9454722,-9.0654715
258,Enp0040,Publican's Licence (7-Day Ordinary),Colette Mcmahon,Walsh's Bar,,Cree,Kilrush,,Co. Clare,"Walsh's Bar, Cree, Kilrush, Co. Clare","Creegh South, Co. Clare, Ireland",52.7462526,-9.4298868
259,Enp0379,Publican's Licence (7-Day Ordinary),Peter O'loghlen,O Loclainn,,Ballyvaughan,,,Co. Clare,"O Loclainn, Ballyvaughan, Co. Clare","Ballyvaughan, Co. Clare, Ireland",53.1162333,-9.1504575
260,Enp0215,Publican's Licence (7-Day Ordinary),Berdonia Limited,Kellys Bar And Restaurant,Ian Forbes,Henry Street,Kilrush,,Co. Clare,"Kellys Bar And Restaurant, Henry Street, Kilrush, Co. Clare","26 Henry St, Drimna, Kilrush, Co. Clare, Ireland",52.6393674,-9.485259899999999
261,Enp0023,Publican's Licence (7-Day Ordinary),Patrick Henchy,Norrie Henchys,,Shraheen,Clooney,,Co. Clare,"Norrie Henchys, Shraheen, Clooney, Co. Clare","Clooney, Sraheen, Quin, Co. Clare, Ireland",52.8568763,-8.8508756
262,Enp0091,Publican's Licence (7-Day Ordinary),Zaki Bar And Restaurant Limited,May Kearneys,Malgorzata Zakias,Lifford,Ennis,,Co. Clare,"May Kearneys, Lifford, Ennis, Co. Clare","2 Newbridge Rd, Lifford, Ennis, Co. Clare, V95 H778, Ireland",52.84762139999999,-8.9818932
263,Enp0118,Publican's Licence (7-Day Ordinary),Sunny Bay Limited,The Claremont Hotel,Eamon Fitzgerald,Lahinch,,,Co. Clare,"The Claremont Hotel, Lahinch, Co. Clare","Main St, Dough, Lahinch, Co. Clare, Ireland",52.9329232,-9.3462553
264,Enp0065,Publican's Licence (7-Day Ordinary),O'halloran's Bar Limited,O'hallorans Bar,,8 High Street,Ennis,,Co. Clare,"O'hallorans Bar, 8 High Street, Ennis, Co. Clare","2 Abbey St, Clonroad Beg, Ennis, Co. Clare, Ireland",52.84462449999999,-8.9827546
265,Enp0061,Publican's Licence (7-Day Ordinary),Kellys Public House Limited,Kellys Bar And Lounge,John Kelly,5 Carmody Street,Ennis,,Co. Clare,"Kellys Bar And Lounge, 5 Carmody Street, Ennis, Co. Clare","5 Carmody St, Clonroad Beg, Ennis, Co. Clare, Ireland",52.8426779,-8.987601699999999
266,Enp0026,Publican's Licence (7-Day Ordinary),Martin Butler,The Cobblers Rest,,Bodyke,,,Co. Clare,"The Cobblers Rest, Bodyke, Co. Clare","Bodyke, Broadford, Scarriff, Co. Clare, Ireland",52.8844524,-8.597113
267,Enp0295,Publican's Licence (7-Day Ordinary),The Long Dock Bar And Restaurant Limited,The Long Dock,Finbar Malone,"Main Street,",Carrigaholt,,Co. Clare,"The Long Dock, Main Street,, Carrigaholt, Co. Clare","West St, Rinemackaderrig, Carrigaholt, Co. Clare, Ireland",52.604006,-9.710766
268,Lip1284,Publican's Licence (7-Day Ordinary),Hesscroft Limited,Macs Bar,Kieran Callinan,Bunratty Folk Park,Bunratty,,Co. Clare,"Macs Bar, Bunratty Folk Park, Bunratty, Co. Clare","Bunratty West, Bunratty, Co. Clare, Ireland",52.69956819999999,-8.811922599999999
269,Enp0206,Publican's Licence (7-Day Ordinary),Aidan Whelan,Whelans Bar Or Considine's Bar,,Barefield,Ennis,,Co. Clare,"Whelans Bar Or Considine's Bar, Barefield, Ennis, Co. Clare","Barefield, Ennis, Co. Clare, Ireland",52.88772549999999,-8.9474661
270,Enp0382,Publican's Licence (7-Day Ordinary),Tom O'keffee,The Ocean View Park,,Cragg,Lahinch,,Co. Clare,"The Ocean View Park, Cragg, Lahinch, Co. Clare","Ocean View, Crag, Lahinch, Co. Clare, Ireland",52.9245592,-9.3473352
271,Enp0068,Publican's Licence (7-Day Ordinary),Brian Kelly And Anne Kelly,Kelly's,Brian Kelly,11a Lower Market Street,Ennis,,Co. Clare,"Kelly's, 11a Lower Market Street, Ennis, Co. Clare","11A Lower Market St, Clonroad Beg, Ennis, Co. Clare, V95 RX74, Ireland",52.8433117,-8.9841325
272,Enp0220,Publican's Licence (7-Day Ordinary),Martin F Mcmahon,Crotty's Bar And Restaurant,,Market Square,Kilrush,,Co. Clare,"Crotty's Bar And Restaurant, Market Square, Kilrush, Co. Clare","Market Square, Drimna, Kilrush, Co. Clare, Ireland",52.63818699999999,-9.484591
273,Enp0064,Publican's Licence (7-Day Ordinary),Causeway Bar Limited,Ciaran's Bar,Laura Browne,Francis Street,Ennis,,Co. Clare,"Ciaran's Bar, Francis Street, Ennis, Co. Clare","2 Francis St, Lifford, Ennis, Co. Clare, Ireland",52.84519,-8.981310500000001
274,Enp0209,Publican's Licence (7-Day Ordinary),Anthony Malone,Shenanigan's Public House,,Frances Street,Kilrush,,Co. Clare,"Shenanigan's Public House, Frances Street, Kilrush, Co. Clare","Market Square, Drimna, Kilrush, Co. Clare, Ireland",52.63818699999999,-9.484591
275,Lip1140,Publican's Licence (7-Day Ordinary),Alan O'callaghan,The Pump House,,Kilmurray,Sixmilebridge,,Co. Clare,"The Pump House, Kilmurray, Sixmilebridge, Co. Clare","Ballymulcashel, Sixmilebridge, Co. Clare, Ireland",52.7769813,-8.782845499999999
276,Enp0385,Publican's Licence (7-Day Ordinary),Anthony Lillis,The Galleon Bar,,Cappa,Kilrush,,Co. Clare,"The Galleon Bar, Cappa, Kilrush, Co. Clare","Cappa Dr, Cappagh, Kilrush, Co. Clare, Ireland",52.6312185,-9.496886
277,Enp0048,Publican's Licence (7-Day Ordinary),Hugh Mcnally,Morrisseys Pub,,Doonbeg,,,Co. Clare,"Morrisseys Pub, Doonbeg, Co. Clare","Main St, Doonbeg, Co. Clare, Ireland",52.7310041,-9.524572899999999
278,Enp0083,Publican's Licence (7-Day Ordinary),Mark Kelly,Considines Bar,,15 Parnell Street,Ennis,,Co. Clare,"Considines Bar, 15 Parnell Street, Ennis, Co. Clare","15 Parnell St, Clonroad Beg, Ennis, Co. Clare, V95 VW59, Ireland",52.84408,-8.98427
279,Enp0077,Publican's Licence (7-Day Ordinary),Mark Kelly,The Diamond Bar,,25 O'connell Street,Ennis,,Co. Clare,"The Diamond Bar, 25 O'connell Street, Ennis, Co. Clare","25 O'Connell Street, Clonroad Beg, Ennis, Co. Clare, Ireland",52.843418,-8.9830353
280,Enp0181,Publican's Licence (7-Day Ordinary),Elaine Haugh,Ritchie's Bar,,O'curry Street,Kilkee,,Co. Clare,"Ritchie's Bar, O'curry Street, Kilkee, Co. Clare","O'Curry St, Dough, Kilkee, Co. Clare, Ireland",52.6780632,-9.6497166
281,Enp0093,Publican's Licence (7-Day Ordinary),Kathleen Butler,Copper Jug,,Lifford,Ennis,,Co. Clare,"Copper Jug, Lifford, Ennis, Co. Clare","Courtview, Lifford, Ennis, Co. Clare, Ireland",52.8483627,-8.981633
282,Enp0231,Publican's Licence (7-Day Ordinary),Catherine Cotter,The Fisherman's Hut,,Kilmore,Kilrush,,Co. Clare,"The Fisherman's Hut, Kilmore, Kilrush, Co. Clare","Kilmore, Knock, Co. Clare, Ireland",52.6284625,-9.332776299999999
283,Enp0137,Publican's Licence (7-Day Ordinary),Patrick Foley,Foley's Bar,,Cross Village,Carrigaholt,,Co. Clare,"Foley's Bar, Cross Village, Carrigaholt, Co. Clare","Cross, Co. Clare, Ireland",52.59893779999999,-9.774122499999999
284,Enp0290,Publican's Licence (7-Day Ordinary),Mark Carmody,Carmody's,,Carrigaholt,,,Co. Clare,"Carmody's, Carrigaholt, Co. Clare","West St, Rinemackaderrig, Carrigaholt, Co. Clare, Ireland",52.6039903,-9.7109595
285,Lip1100,Publican's Licence (7-Day Ordinary),Jack Gleeson,The Greyhound Bar,,Sixmilebridge,,,Co. Clare,"The Greyhound Bar, Sixmilebridge, Co. Clare","Mountievers, Co. Clare, Ireland",52.74322129999999,-8.7724318
286,Lip0950,Publican's Licence (7-Day Ordinary),Declan Nugent,Jack's Place,,Main Street,Kilkishen,,Co. Clare,"Jack's Place, Main Street, Kilkishen, Co. Clare","Main St, Gortnaglearagh, Kilkishen, Co. Clare, Ireland",52.80593630000001,-8.7512648
287,Enp0105,Publican's Licence (7-Day Ordinary),Marie Daly,Daly's  Bar,,Main Street,Ennistymon,,Co. Clare,"Daly's  Bar, Main Street, Ennistymon, Co. Clare","Main St, Ennistimon, Co. Clare, Ireland",52.9405911,-9.293399899999999
288,Enp0309,Publican's Licence (7-Day Ordinary),Sandra Minogue,The Commercial,,Main Street,Tulla,,Co. Clare,"The Commercial, Main Street, Tulla, Co. Clare","46-47 Catherine St, Limerick, V94 T2V3, Ireland",52.6608277,-8.6280941
289,Enp0135,Publican's Licence (7-Day Ordinary),Brian Lynch,Bogdale House,,Lisroe,Kilmaley,,Co. Clare,"Bogdale House, Lisroe, Kilmaley, Co. Clare","Lisroe Road, Boolyneaska, Kilmaley, Co. Clare, Ireland",52.7957504,-9.188685399999999
290,Enp0241,Publican's Licence (7-Day Ordinary),Imperial Hotel Lisdoonvarna Co Limited,Meg Maguires,,Lisdoonvarna,,,Co. Clare,"Meg Maguires, Lisdoonvarna, Co. Clare","Rathbaun, Lisdoonvarna, Co. Clare, Ireland",53.0301669,-9.2897106
291,Enp0263,Publican's Licence (7-Day Ordinary),Maria Marrinan,Marrinans Bar,,Main Street,Miltown Malbay,,Co. Clare,"Marrinans Bar, Main Street, Miltown Malbay, Co. Clare","Main St, Leagard North, Miltown Malbay, Co. Clare, Ireland",52.8556831,-9.4007556
292,Enp0034,Publican's Licence (7-Day Ordinary),Damien Ryan,Mac's Bar,,Corofin,,,Co. Clare,"Mac's Bar, Corofin, Co. Clare","Main St, Dough, Lahinch, Co. Clare, Ireland",52.9325631,-9.3462958
293,Enp0305,Publican's Licence (7-Day Ordinary),Neil O'brien,Windswept Inn,,Main Street,Tulla,,Co. Clare,"Windswept Inn, Main Street, Tulla, Co. Clare","Tulla, Co. Clare, Ireland",52.8674206,-8.7568951
294,Enp0315,Publican's Licence (7-Day Ordinary),John O'donnell,Doyles,,Dromindoora,Caher,Feakle,Co. Clare,"Doyles, Dromindoora, Caher, Feakle, Co. Clare","Caher, Drumandoora, Caher, Co. Clare, Ireland",52.997071,-8.720113
295,Enp0271,Publican's Licence (7-Day Ordinary),Jonathan Wilson,Friel's Bar,,Mullagh Road,Miltown,Malbay,Co. Clare,"Friel's Bar, Mullagh Road, Miltown, Malbay, Co. Clare","Mullagh Rd, Leagard North, Miltown Malbay, Co. Clare, Ireland",52.8545114,-9.401247099999999
296,Enp0377,Publican's Licence (7-Day Ordinary),Gregans Castle Limited,Gregans Castle Hotel,Simon Hayden,Ballyvaughan,,,Co. Clare,"Gregans Castle Hotel, Ballyvaughan, Co. Clare","Gregans Castle Hotel, Corkscrew Hill, Gragan East, Ballyvaughan, Co. Clare, H91 CF60, Ireland",53.0771088,-9.1841903
297,Enp0054,Publican's Licence (7-Day Ordinary),Michael Garrihy And Michelle Meaney,Clancy's Bar,,Moyasta,Kilrush,,Co. Clare,"Clancy's Bar, Moyasta, Kilrush, Co. Clare","Kilrush Rd, Garraun, Kilkee, Co. Clare, Ireland",52.6732644,-9.5882176
298,Enp0245,Publican's Licence (7-Day Ordinary),Imperial Hotel Lisdoonvarna Co Limited,The Imperial Hotel,James White,Lisdoonvarna,,,Co. Clare,"The Imperial Hotel, Lisdoonvarna, Co. Clare","Main St, Rathbaun, Lisdoonvarna, Co. Clare, Ireland",53.0281569,-9.289534399999999
299,Enp0242,Publican's Licence (7-Day Ordinary),Hydro Hotel Limited,Hydro Hotel,Marcus White,Lisdoonvarna,,,Co. Clare,"Hydro Hotel, Lisdoonvarna, Co. Clare","Rathbaun, Co. Clare, Ireland",53.0268849,-9.2906322
300,Lip1123,Publican's Licence (7-Day Ordinary),Liam Ryan,Ryan Darbys Public House,,O'briensbridge,,,Co. Clare,"Ryan Darbys Public House, O'briensbridge, Co. Clare","O'Briensbridge, Co. Clare, Ireland",52.7527002,-8.498597
301,Lip0953,Publican's Licence (7-Day Ordinary),Liam Ryan,The Shanachaoi Bar,,Killaloe,,,Co. Clare,"The Shanachaoi Bar, Killaloe, Co. Clare","Ballina/Killaloe, Co. Clare, Ballina, Killaloe, Co. Clare, V94E2D6, Ireland",52.81104699999999,-8.444048
302,Enp0136,Publican's Licence (7-Day Ordinary),Eamon Downes,The Crossroads Bar,,Knockalough,Kilrish,,Co. Clare,"The Crossroads Bar, Knockalough, Kilrish, Co. Clare","N68, Corraige, Co. Clare, Ireland",52.7098749,-9.2617764
303,Enp0059,Publican's Licence (7-Day Ordinary),Queens Hotel Limited,Queens Hotel,,Cruises Pub And Restaurant,Abbey Street,Ennis,Co. Clare,"Queens Hotel, Cruises Pub And Restaurant, Abbey Street, Ennis, Co. Clare","Abbey St, Ennis, Co. Clare, Ireland",52.845523,-8.981698
304,Enp0410,Publican's Licence (7-Day Ordinary),Hotel Doolin Limited,Hotel Doolin,,Fitz's Cross,Doolin,,Co. Clare,"Hotel Doolin, Fitz's Cross, Doolin, Co. Clare","Rivervale, Teergonean, Doolin, Co. Clare, Ireland",53.01632499999999,-9.376538
305,Enp0353,Publican's Licence (7-Day Ordinary),Sheila Donovan,The Old Brogue Bar,,Killimer,Kilrush,,Co. Clare,"The Old Brogue Bar, Killimer, Kilrush, Co. Clare","Kilrush ferry, Burrane Lower, Kilrush, Co. Clare, Ireland",52.6172201,-9.3812205
306,Enp0134,Publican's Licence (7-Day Ordinary),Gary Pepper,Peppers Bar,,Feakle,,,Co. Clare,"Peppers Bar, Feakle, Co. Clare","Feakle, Co. Clare, Ireland",52.93103809999999,-8.636906
307,Enp0103,Publican's Licence (7-Day Ordinary),Antoin O'looney,O'looneys,,Lahinch,,,Co. Clare,"O'looneys, Lahinch, Co. Clare","Beech House Marine Parade Wild Atlantic Way, Lahinch, Co. Clare, V95 E9DD, Ireland",52.93283599999999,-9.34752
308,Enp0236,Publican's Licence (7-Day Ordinary),Kevin Mcnamara,The Irish Arms Hotel,,Lisdoonvarna,,,Co. Clare,"The Irish Arms Hotel, Lisdoonvarna, Co. Clare","1 Main St, Rathbaun, Lisdoonvarna, Co. Clare, V95 KHH4, Ireland",53.0312686,-9.2895421
309,Enp0329,Publican's Licence (7-Day Ordinary),Nellie O'boyle,The Ravine Hotel,,Lisdoonvarna,,,Co. Clare,"The Ravine Hotel, Lisdoonvarna, Co. Clare","Lisdoonvarna Rathbaun, Clare, Ireland",53.030167,-9.289710999999999
310,Lip1122,Publican's Licence (7-Day Ordinary),Evan Conroy,Cooney's Bar,,Bridgetown,Clonlara,,Co. Clare,"Cooney's Bar, Bridgetown, Clonlara, Co. Clare","Cloonlara, Co. Clare, Ireland",52.72471179999999,-8.5546236
311,Lip0956,Publican's Licence (7-Day Ordinary),William Walsh,Top Of The Town,,The Green,Killaloe,,Co. Clare,"Top Of The Town, The Green, Killaloe, Co. Clare","Shantraud, Killaloe, Co. Clare, Ireland",52.808886,-8.4475152
312,Enp0163,Publican's Licence (7-Day Ordinary),John Slattery,The Drumquin Tavern,,Drumquin,Tiermaclane,,Co. Clare,"The Drumquin Tavern, Drumquin, Tiermaclane, Co. Clare","5-, 6 Craglands, Ennis, Co. Clare, Ireland",52.7673358,-9.024176599999999
313,Enp0195,Publican's Licence (7-Day Ordinary),Pauline Kirk,Breen D Bar,,Main Street,Kilmihil,,Co. Clare,"Breen D Bar, Main Street, Kilmihil, Co. Clare","Kilmihil, Co. Clare, Ireland",52.7207134,-9.319435799999999
314,Enp0060,Publican's Licence (7-Day Ordinary),Barry O'keeffe,Considines Bar,,26 Abbey Street,Ennis,,Co. Clare,"Considines Bar, 26 Abbey Street, Ennis, Co. Clare","15 Parnell St, Clonroad Beg, Ennis, Co. Clare, V95 VW59, Ireland",52.8440846,-8.9842652
315,Lip0768,Publican's Licence (7-Day Ordinary),Gerard Browne Limited,G. Browne,,Parteen,,,Co. Clare,"G. Browne, Parteen, Co. Clare","Harbour House, Wood Quay, Clonroad Beg, Ennis, Co. Clare, Ireland",52.844094,-8.986946999999999
316,Enp0364,Publican's Licence (7-Day Ordinary),Cathal O'loughlin,"O'loughlins,ocean View Bar And Restaurant",,Main Street,Miltown Malbay,,Co. Clare,"O'loughlins,ocean View Bar And Restaurant, Main Street, Miltown Malbay, Co. Clare","Main St, Leagard North, Miltown Malbay, Co. Clare, Ireland",52.8548936,-9.4011792
317,Lip1160,Publican's Licence (7-Day Ordinary),Seolta Management Services Limited,Bill Mcgregor's Bar,James Healy,Sixmilebridge,,,Co. Clare,"Bill Mcgregor's Bar, Sixmilebridge, Co. Clare","Sixmilebridge, Co. Clare, Ireland",52.7412593,-8.775683899999999
318,Enp0150,Publican's Licence (7-Day Ordinary),The Centre Inn Limited,Linnane's Pub,,Kilfenora,,,Co. Clare,"Linnane's Pub, Kilfenora, Co. Clare","Main St, Maryville, Kilfenora, Co. Clare, Ireland",52.9904428,-9.2155246
319,Enp0130,Publican's Licence (7-Day Ordinary),Patrick Tierney,Cooley's House,,Main Street,Ennistymon,,Co. Clare,"Cooley's House, Main Street, Ennistymon, Co. Clare","10 Main St, Ennistimon, Co. Clare, V95 H9AW, Ireland",52.9406835,-9.2936906
320,Lip0827,Publican's Licence (7-Day Ordinary),Brendan Lynch,The Nightingale Bar,,Whitegate,,,Co. Clare,"The Nightingale Bar, Whitegate, Co. Clare","Whitegate, Lakyle, Whitegate, Co. Clare, Ireland",52.9518694,-8.3719086
321,Enp0369,Publican's Licence (7-Day Ordinary),James White And Co Limited,King Thomond Hotel,James White,Lisdoonvarna,,,Co. Clare,"King Thomond Hotel, Lisdoonvarna, Co. Clare","The Bog Road, Lisdoonvarna, Co. Clare, Ireland",53.02480910000001,-9.2840826
322,Enp0079,Publican's Licence (7-Day Ordinary),John Whelan,Michael Fawl,,69 O'connell Street,Ennis,,Co. Clare,"Michael Fawl, 69 O'connell Street, Ennis, Co. Clare","69 O'Connell Street, Clonroad Beg, Ennis, Co. Clare, V95 X573, Ireland",52.8422078,-8.9836949
323,Enp0311,Publican's Licence (7-Day Ordinary),Anthony Power,Powers Bar,,Chapel Street,Tulla,,Co. Clare,"Powers Bar, Chapel Street, Tulla, Co. Clare","Oughterard Post Office, Main St, Fough West, Oughterard, Co. Galway, Ireland",53.4286545,-9.3188186
324,Enp0288,Publican's Licence (7-Day Ordinary),Carrolls Abbey Tavern Limited,The Abbey Tavern,,Quinn,,,Co. Clare,"The Abbey Tavern, Quinn, Co. Clare","Quin Rd, Quin, Ennis, Co. Clare, Ireland",52.8176812,-8.8643025
325,Enp0207,Publican's Licence (7-Day Ordinary),Patrick Hassett,Hassett's Lounge Bar,,Barefield,Ennis,,Co. Clare,"Hassett's Lounge Bar, Barefield, Ennis, Co. Clare","Barefield, Ennis, Co. Clare, Ireland",52.88772549999999,-8.9474661
326,Enp0286,Publican's Licence (7-Day Ordinary),Toms Place Limited,The Village Inn,,Main Street,Quin,,Co. Clare,"The Village Inn, Main Street, Quin, Co. Clare","Main Street, Quin, Quin, Co. Clare, Ireland",52.81822649999999,-8.8657931
327,Enp0042,Publican's Licence (7-Day Ordinary),P & M Mccarthys Bar Limited,Fogarty's Bar,,Crusheen,Ennis,,Co. Clare,"Fogarty's Bar, Crusheen, Ennis, Co. Clare","1 Main Street, Crusheen, Co. Clare, V95 C430, Ireland",52.9387558,-8.8971401
328,Enp0055,Publican's Licence (7-Day Ordinary),Francis White,The Halfway House,,Clonroad More,Ennis,,Co. Clare,"The Halfway House, Clonroad More, Ennis, Co. Clare","Clare Road, Ennis, Co. Clare, Ireland",52.8309238,-8.980134999999999
329,Enp0233,Publican's Licence (7-Day Ordinary),Mtp Oak Limited,Joseph Mchugh,Tony Considine,Main Street,Liscannor,,Co. Clare,"Joseph Mchugh, Main Street, Liscannor, Co. Clare","Main St, Liscannor, Co. Clare, Ireland",52.9385544,-9.3914633
330,Enp0178,Publican's Licence (7-Day Ordinary),Hendon Hospitality Limited,The Greyhound Bar,,O'curry Street,Kilkee,,Co. Clare,"The Greyhound Bar, O'curry Street, Kilkee, Co. Clare","O'Curry St, Dough, Kilkee, Co. Clare, Ireland",52.6780225,-9.6495604
331,1002239,Publican's Licence (7-Day Ordinary),Cmab Limited,Wild Atlantic Way Lodge,,Main Street,Ballyvaughan,,Co. Clare,"Wild Atlantic Way Lodge, Main Street, Ballyvaughan, Co. Clare","Main Street, Ballyvaughan, Co. Clare, Ireland",53.115786,-9.148145
332,Enp0383,Publican's Licence (7-Day Ordinary),Spanish Point Investments Limited,Bellbridge House Hotel,,Spanish Point,,,Co. Clare,"Bellbridge House Hotel, Spanish Point, Co. Clare","Spanish Point, Dough, Miltown Malbay, Co. Clare, Ireland",52.837691,-9.429528
333,Enp0296,Publican's Licence (7-Day Ordinary),Geraldine Morrisey,Morrissey's Bar,,West Street,Carrigaholt,,Co. Clare,"Morrissey's Bar, West Street, Carrigaholt, Co. Clare","West St, Rinemackaderrig, Carrigaholt, Co. Clare, Ireland",52.604006,-9.710766
334,Enp0260,Publican's Licence (7-Day Ordinary),Deirdre Downes,The Malbay,,Main Street,Miltown Malbay,,Co. Clare,"The Malbay, Main Street, Miltown Malbay, Co. Clare","Main St, Leagard North, Miltown Malbay, Co. Clare, Ireland",52.8557916,-9.4009082
335,Enp0265,Publican's Licence (7-Day Ordinary),Donnan Meade,Meades,,Main Street,Miltown Malbay,,Co. Clare,"Meades, Main Street, Miltown Malbay, Co. Clare","Ennistymon Rd, Leagard North, Miltown Malbay, Co. Clare, Ireland",52.8569966,-9.401595
336,Lip1159,Publican's Licence (7-Day Ordinary),Anne Casey,Casey's Bar,,Main Street,Sixmilebridge,,Co. Clare,"Casey's Bar, Main Street, Sixmilebridge, Co. Clare","Main St, Sixmilebridge, Co. Clare, Ireland",52.741783,-8.7735507
337,Lip0831,Publican's Licence (7-Day Ordinary),Clare Taverns,Durty Nellys,,Bunratty,,,Co. Clare,"Durty Nellys, Bunratty, Co. Clare","Bunratty West, Bunratty, Co. Clare, Ireland",52.6964876,-8.8117153
338,Enp0301,Publican's Licence (7-Day Ordinary),Michael Duggan,Kilcatherine,,Muckinish,Spancilhill,,Co. Clare,"Kilcatherine, Muckinish, Spancilhill, Co. Clare","Kilcatherine House, Muckinish, Ennis, Co. Clare, Ireland",52.8693168,-8.903929699999999
339,Lip1128,Publican's Licence (7-Day Ordinary),Pipers Inn Limited,The Piper's Inn,,Ogonnelloe,Killaloe,,Co. Clare,"The Piper's Inn, Ogonnelloe, Killaloe, Co. Clare","Ballyheefy, Killaloe, Co. Clare, Ireland",52.852455,-8.479642
340,Enp0376,Publican's Licence (7-Day Ordinary),Monks At The Pier Limited,Monks At The Pier,,Lisnannard,Ballyvaughan,,Co. Clare,"Monks At The Pier, Lisnannard, Ballyvaughan, Co. Clare","The Pier,, Ballyvaughan,, Co. Clare, H91 W9TN, Ireland",53.119761,-9.1547
341,Enp0099,Publican's Licence (7-Day Ordinary),Pot Duggans Limited,Pot Duggans,,Ennistymon,,,Co. Clare,"Pot Duggans, Ennistymon, Co. Clare","New Rd, Ennistimon, Co. Clare, Ireland",52.93906819999999,-9.2932638
342,Enp0087,Publican's Licence (7-Day Ordinary),Haymac Taverns Limited,Lucas's,Darragh Mcallister,74 Parnell Street,Ennis,,Co. Clare,"Lucas's, 74 Parnell Street, Ennis, Co. Clare","74 Parnell St, Clonroad Beg, Ennis, Co. Clare, Ireland",52.8436107,-8.9869072
343,1013324,Publican's Licence (7-Day Ordinary),Grant Thornton Corporate Finance Limited,Wuthering Heights Public House,Aengus Burns,Broadford,,,Co. Clare,"Wuthering Heights Public House, Broadford, Co. Clare","Ardskeagh, Broadford, Co. Clare, Ireland",52.8060302,-8.6328674
344,Enp0365,Publican's Licence (7-Day Ordinary),Clare Road Hotel Services Limited,Shannon Spprings Hotel,,Ballycasey,Shannon,,Co. Clare,"Shannon Spprings Hotel, Ballycasey, Shannon, Co. Clare","Ballycasey, Shannon, Co. Clare, V14 A336, Ireland",52.715101,-8.862287
345,Enp0235,Publican's Licence (7-Day Ordinary),John Vaughan,The Anchor Bar,,Liscannor,,,Co. Clare,"The Anchor Bar, Liscannor, Co. Clare","Liscannor, Co. Clare, Ireland",52.93860549999999,-9.3911433
346,Lip1127,Publican's Licence (7-Day Ordinary),Gearoid Costello Receiver,Mickey Rooney's Bar,,Ogonnelloe,Scariff,,Co. Clare,"Mickey Rooney's Bar, Ogonnelloe, Scariff, Co. Clare","Ballyhurly, Ogonnelloe, Co. Clare, Ireland",52.88693809999999,-8.4589842
347,Enp0224,Publican's Licence (7-Day Ordinary),Finbarr Frawley,The Percy French Bar,,23 Moore Street,Kilrush,Clare,Co. Clare,"The Percy French Bar, 23 Moore Street, Kilrush, Clare, Co. Clare","Moore St, Kilrush, Co. Clare, Ireland",52.637546,-9.482127199999999
348,Lip1150,Publican's Licence (7-Day Ordinary),Rory Moloney,Johnny's Bar,,Main Street,Scariff,,Co. Clare,"Johnny's Bar, Main Street, Scariff, Co. Clare","Market Square, Ballyminoge, Scarriff, Co. Clare, Ireland",52.9109144,-8.531428499999999
349,Enp0024,Publican's Licence (7-Day Ordinary),Michael Mcinernery And Margaret Mcinernery,The Hilltop Bar,,Coolmeen,Clonderlaw,,Co. Clare,"The Hilltop Bar, Coolmeen, Clonderlaw, Co. Clare","Lissyvurriheen, Co. Clare, Ireland",52.6595209,-9.2143562
350,Lip1043,Publican's Licence (7-Day Ordinary),Patricia O'shea,O'shea's Bar,,Main Street,Clonlara,,Co. Clare,"O'shea's Bar, Main Street, Clonlara, Co. Clare","Cloonlara, Co. Clare, Ireland",52.723865,-8.5527026
351,Lip1045,Publican's Licence (7-Day Ordinary),Sean Mcmahon,The Mills Tavern,,Iragh,O'callaghan's Mills,,Co. Clare,"The Mills Tavern, Iragh, O'callaghan's Mills, Co. Clare","Foxandgeese, O'Callaghansmills, Co. Clare, Ireland",52.8421732,-8.686002199999999
352,Enp0337,Publican's Licence (7-Day Ordinary),Shannon Knights Limited,Shannon Knights Inn,,Skycourt,Shannon Town,,Co. Clare,"Shannon Knights Inn, Skycourt, Shannon Town, Co. Clare","Shannon Town Centre, Tullyvarraga, Shannon, Co. Clare, Ireland",52.7110173,-8.8801593
353,Lip1017,Publican's Licence (7-Day Ordinary),James Vaughan,Vaughan's Bar,,Broadford,,,Co. Clare,"Vaughan's Bar, Broadford, Co. Clare","Main St, Gortnaglogh, Broadford, Co. Clare, Ireland",52.8047895,-8.633253
354,Enp0400,Publican's Licence (7-Day Ordinary),Sean Malone,The Market House,,Main Street,Miltown Malbay,,Co. Clare,"The Market House, Main Street, Miltown Malbay, Co. Clare","Church St, Ennistimon, Co. IE, Ireland",52.94196299999999,-9.2933056
355,Enp0264,Publican's Licence (7-Day Ordinary),Maureen Flynn,The Players Club,,Main Street,Miltown Malbay,,Co. Clare,"The Players Club, Main Street, Miltown Malbay, Co. Clare","Main St, Leagard North, Miltown Malbay, Co. Clare, Ireland",52.8556831,-9.4007556
356,Enp0124,Publican's Licence (7-Day Ordinary),Pamaja Limited,The Cornerstone,Patrick Ahern,Lahinch,,,Co. Clare,"The Cornerstone, Lahinch, Co. Clare","Main St, Dough, Lahinch, Co. Clare, Ireland",52.9320576,-9.3461295
357,Enp0078,Publican's Licence (7-Day Ordinary),Odbar Limited,O'deas,Charlie O'meara,66 O'connell Street,Ennis,,Co. Clare,"O'deas, 66 O'connell Street, Ennis, Co. Clare","64 O'Connell Street, Clonroad Beg, Ennis, Co. Clare, V95 C6C4, Ireland",52.8416502,-8.9837093
358,Enp0032,Publican's Licence (7-Day Ordinary),Peter Barry,Crowley's Bar,,Main Street,Corofin,,Co. Clare,"Crowley's Bar, Main Street, Corofin, Co. Clare","Main St, Laghtagoona, Corofin, Co. Clare, Ireland",52.9445006,-9.063413299999999
359,Enp0109,Publican's Licence (7-Day Ordinary),Matthew Griffin,James Griffin,,Bridge Street,Ennistymon,,Co. Clare,"James Griffin, Bridge Street, Ennistymon, Co. Clare","Bridge St, Ennistimon, Co. Clare, Ireland",52.93918619999999,-9.2936974
360,Enp0307,Publican's Licence (7-Day Ordinary),Richard Mcarthur,Flannan Mcarthur,,Main Street,Tulla,,Co. Clare,"Flannan Mcarthur, Main Street, Tulla, Co. Clare","Main St, Tulla, Co. Clare, Ireland",52.867494,-8.757421500000001
361,Enp0149,Publican's Licence (7-Day Ordinary),Patrick Coyle,The Alders,,The Square,Kildysart,,Co. Clare,"The Alders, The Square, Kildysart, Co. Clare","Kildysart Rd, Killadysert, Ennis, Co. Clare, Ireland",52.6739112,-9.1081445
362,Enp0312,Publican's Licence (7-Day Ordinary),Noeleen Lynch,An Teach Ól,,Main Street,Tulla,,Co. Clare,"An Teach Ól, Main Street, Tulla, Co. Clare","Main St, Tulla, Co. Clare, Ireland",52.867494,-8.757421500000001
363,Enp0401,Publican's Licence (7-Day Ordinary),Cratloe Entertainments Limited,Woodcross Bar,,Ballymorris,Cratloe,,Co. Clare,"Woodcross Bar, Ballymorris, Cratloe, Co. Clare","Cratloe, Laghile, Cratloe, Co. Clare, Ireland",52.6984928,-8.7630188
364,Enp0002,Publican's Licence (7-Day Ordinary),Brian O'connell,Moloney's Bar,,Main Street,Feakle,,Co. Clare,"Moloney's Bar, Main Street, Feakle, Co. Clare","21 Coill Mhara, Tullyvarraga, Shannon, Co. Clare, Ireland",52.7055636,-8.874182
365,Enp0158,Publican's Licence (7-Day Ordinary),Sheila Mccormack,Mcganns Pub,,Roadford,Doolin,,Co. Clare,"Mcganns Pub, Roadford, Doolin, Co. Clare","Main Street, Roadford, Doolin, Co. Clare, Ireland",53.0183591,-9.3721392
366,Enp0067,Publican's Licence (7-Day Ordinary),John Whyte Bars Limited,James Moroney Family Grocer And Co,John Whyte,9 Lower Market Street,Ennis,,Co. Clare,"James Moroney Family Grocer And Co, 9 Lower Market Street, Ennis, Co. Clare","9 Lower Market St, Clonroad Beg, Ennis, Co. Clare, V95 HA89, Ireland",52.8432246,-8.983895
367,Lip1015,Publican's Licence (7-Day Ordinary),Danny Chaplin,Danny's Bar,,3 Main Street,Broadford,,Co. Clare,"Danny's Bar, 3 Main Street, Broadford, Co. Clare","Main St, Ardskeagh, Broadford, Co. Clare, Ireland",52.80533879999999,-8.6327997
368,Enp0033,Publican's Licence (7-Day Ordinary),Michael Hogan,Anglers Rest,,Main Street,Corofin,,Co. Clare,"Anglers Rest, Main Street, Corofin, Co. Clare","2 Main St, Laghtagoona, Corofin, Co. Clare, Ireland",52.9449962,-9.064177899999999
369,Enp0016,Publican's Licence (7-Day Ordinary),John Quinlivan,The Honk Bar,,Ballycally Rineanna,Newmarket On Fergus,,Co. Clare,"The Honk Bar, Ballycally Rineanna, Newmarket On Fergus, Co. Clare","Rineanna, Newmarket On Fergus, Co. Clare, Ireland",52.7035613,-8.936654899999999
370,Enp0148,Publican's Licence (7-Day Ordinary),John Cahill,Cahill's Shannon View,,Main Street,Kildysart,,Co. Clare,"Cahill's Shannon View, Main Street, Kildysart, Co. Clare","Killadysert, Co. Clare, Ireland",52.67215849999999,-9.1073139
371,Enp0185,Publican's Licence (7-Day Ordinary),Frank Haugh,The Central Bar,,O'curry Street,Kilkee,,Co. Clare,"The Central Bar, O'curry Street, Kilkee, Co. Clare","O'Curry St, Dough, Kilkee, Co. Clare, Ireland",52.6780632,-9.6497166
372,Enp0247,Publican's Licence (7-Day Ordinary),Fergal Haier,Fanny O'deas,,Lissycasey,,,Co. Clare,"Fanny O'deas, Lissycasey, Co. Clare","Lissycasey, Ennis, Co. Clare, V95 DX08, Ireland",52.7394624,-9.172687999999999
373,Enp0010,Publican's Licence (7-Day Ordinary),Eileen Garland,Magpie Bar,,Main Steet,Clarecastle,,Co. Clare,"Magpie Bar, Main Steet, Clarecastle, Co. Clare","6 Main St, Clare Commons, Ennis, Co. Clare, Ireland",52.8149889,-8.963362499999999
374,Enp0282,Publican's Licence (7-Day Ordinary),Johnny Collins,The Sports Bar,,The Square,Newmarket On Fergus,,Co. Clare,"The Sports Bar, The Square, Newmarket On Fergus, Co. Clare","The Square, Newmarket On Fergus, Co. Clare, Ireland",52.7604535,-8.896035699999999
375,Enp0021,Publican's Licence (7-Day Ordinary),Christina Garfield,O'looney's Bar,,Moloskey,Mullagh,Ennis,Co. Clare,"O'looney's Bar, Moloskey, Mullagh, Ennis, Co. Clare","Beech House Marine Parade Wild Atlantic Way, Lahinch, Co. Clare, V95 E9DD, Ireland",52.93283599999999,-9.34752
376,Enp0182,Publican's Licence (7-Day Ordinary),Lislanahan Enterprises Limited,O'mara's Bar,Eugene O'mara,O'curry Street,Kilkee,,Co. Clare,"O'mara's Bar, O'curry Street, Kilkee, Co. Clare","12 O'Curry St, Dough, Kilkee, Co. Clare, Ireland",52.6787204,-9.648286400000002
377,Enp0131,Publican's Licence (7-Day Ordinary),Lanod Hospitality Limited,The 19th,Paddy Murphy,Lahinch,,,Co. Clare,"The 19th, Lahinch, Co. Clare","Main St, Dough, Lahinch, Co. Clare, Ireland",52.9321686,-9.345929
378,Lip1044,Publican's Licence (7-Day Ordinary),Patrick Stritch,Stritch Public House,,Clonlara,,,Co. Clare,"Stritch Public House, Clonlara, Co. Clare","Cloonlara, Co. Clare, Ireland",52.7240569,-8.5528377
379,Enp0289,Publican's Licence (7-Day Ordinary),Claire Titley,The Monks Well Inn,,Main Street,Quin,,Co. Clare,"The Monks Well Inn, Main Street, Quin, Co. Clare","Main Street, Quin, Quin, Co. Clare, Ireland",52.81822649999999,-8.8657931
380,Enp0332,Publican's Licence (7-Day Ordinary),Pj Murphy,The Kilmaley Inn,,Ennis,,,Co. Clare,"The Kilmaley Inn, Ennis, Co. Clare","Lipuckan, Kilmaley, Co. Clare, Ireland",52.81883149999999,-9.1088004
381,Enp0268,Publican's Licence (7-Day Ordinary),Bridget Heher,The West-bridge,,Main Street,Miltown Malbay,,Co. Clare,"The West-bridge, Main Street, Miltown Malbay, Co. Clare","Main St, Leagard North, Miltown Malbay, Co. Clare, Ireland",52.8557542,-9.4009733
382,Lip1155,Publican's Licence (7-Day Ordinary),Fionnuala O'brien,Nuala's Bar And Restaurant,,Tuamgraney,Scariff,,Co. Clare,"Nuala's Bar And Restaurant, Tuamgraney, Scariff, Co. Clare","Tuamgraney, Scariff, Co. Clare, Ireland",52.8987297,-8.5404565
383,Lip1103,Publican's Licence (7-Day Ordinary),Anita Keane,Keane's,,Mountshannon,,,Co. Clare,"Keane's, Mountshannon, Co. Clare","Dooros, Co. Clare, Ireland",52.9319139,-8.4288677
384,Enp0017,Publican's Licence (7-Day Ordinary),Declan O'callaghan,Ballinalacken Castle Hotel,,Ballinalacken,Lisdoonvarna,,Co. Clare,"Ballinalacken Castle Hotel, Ballinalacken, Lisdoonvarna, Co. Clare","Coast Road, Doolin, Ireland",53.0464097,-9.337845699999999
385,1008670,Publican's Licence (7-Day Ordinary),Tigl Ireland Enterprises Limited,"The Function Venue ""wedding Pavilion""",,Trump International Golf Links And Hotel,Doughmore Bay,Doonbeg,Co. Clare,"The Function Venue ""wedding Pavilion"", Trump International Golf Links And Hotel, Doughmore Bay, Doonbeg, Co. Clare","Doughmore Bay, Doonbeg, Co. Clare, Ireland",52.7460738,-9.502573
386,Enp0129,Publican's Licence (7-Day Ordinary),Sean Lyne,The Lahinch Golf And Leisure Hotel,,Main Street,Lahinch,,Co. Clare,"The Lahinch Golf And Leisure Hotel, Main Street, Lahinch, Co. Clare","Station Rd, Crag, Lahinch, Co. Clare, V95 VP9H, Ireland",52.93132199999999,-9.3454053
387,Enp0283,Publican's Licence (7-Day Ordinary),Noel Mccarthy,The Pub,,Main Street,Newmarket On Fergus,,Co. Clare,"The Pub, Main Street, Newmarket On Fergus, Co. Clare","Main St, Newmarket, Newmarket on Fergus, Co. Clare, Ireland",52.7604617,-8.8955886
388,Enp0227,Publican's Licence (7-Day Ordinary),Aidan Galvin,Kilshanny House,,Caherlooskaun,Kilshanny,,Co. Clare,"Kilshanny House, Caherlooskaun, Kilshanny, Co. Clare","Kilshanny House, Caherlooskaun, Kilshanny, Co. Clare, Ireland",52.9818076,-9.2981538
389,Enp0071,Publican's Licence (7-Day Ordinary),Elmo Pub And Cafe Limited,Taylors Bar,Susan Taylor,Lower Market Street,Ennis,,Co. Clare,"Taylors Bar, Lower Market Street, Ennis, Co. Clare","Lower Market St, Clonroad Beg, Ennis, Co. Clare, Ireland",52.8425322,-8.9852232
390,Enp0076,Publican's Licence (7-Day Ordinary),Derglee Taverns Limited,Brogan's Bar,,24 O'connell Street,Ennis,,Co. Clare,"Brogan's Bar, 24 O'connell Street, Ennis, Co. Clare","24 O'Connell Street, Clonroad Beg, Ennis, Co. Clare, Ireland",52.8435084,-8.9826747
391,Enp0340,Publican's Licence (7-Day Ordinary),David Fitzgerald,The Bellsfort Inn,,Leamemeighmore,Newmarket On Fergus,,Co. Clare,"The Bellsfort Inn, Leamemeighmore, Newmarket On Fergus, Co. Clare","Dromoland Castle Hotel, Dromoland, Newmarket-on-Fergus, Co. Clare, V95 ATD3, Ireland",52.7830484,-8.905636399999999
392,Enp0003,Publican's Licence (7-Day Ordinary),Havenway Limited,J J Rynne Bar And Foodstore,,Inagh,,,Co. Clare,"J J Rynne Bar And Foodstore, Inagh, Co. Clare","Carrowkeel East, Inagh, Co. Clare, Ireland",52.8769834,-9.176764499999999
393,Enp0199,Publican's Licence (7-Day Ordinary),Patrick Cooney,The Quilty Tavern,,Quilty,,,Co. Clare,"The Quilty Tavern, Quilty, Co. Clare","Ennis Rd, Quilty West, Ennis, Co. Clare, Ireland",52.8166419,-9.4556735
394,Enp0336,Publican's Licence (7-Day Ordinary),Whiteland Inn Limited,The Burren Castle,,Aughiska More,Lisdoonvarna,,Co. Clare,"The Burren Castle, Aughiska More, Lisdoonvarna, Co. Clare","Bog Rd, Aughiska More, Lisdoonvarna, Co. Clare, Ireland",53.0187591,-9.3157411
395,Lip1151,Publican's Licence (7-Day Ordinary),Eamon Moloney,Jakkos,,Scariff,,,Co. Clare,"Jakkos, Scariff, Co. Clare","Bridge Street, Scarriff, Co. Clare, Ireland",52.911541,-8.529060399999999
396,Enp0243,Publican's Licence (7-Day Ordinary),Royal Spa Limited,Royal Spa Hotel,Patrick Doherty,Lisdoonvarna,,,Co. Clare,"Royal Spa Hotel, Lisdoonvarna, Co. Clare","Main St, Rathbaun, Lisdoonvarna, Co. Clare, Ireland",53.02877400000001,-9.290011
397,Enp0258,Publican's Licence (7-Day Ordinary),Patrick Kelly,The Central Hotel,,Miltown Malbay,,,Co. Clare,"The Central Hotel, Miltown Malbay, Co. Clare","Main Street, Milltown Malbay, Ennis, Co. Clare, Ireland",52.8552252,-9.401232499999999
398,Enp0238,Publican's Licence (7-Day Ordinary),Peter Curtin,Roadside Tavern,,Lisdoonvarna,,,Co. Clare,"Roadside Tavern, Lisdoonvarna, Co. Clare","17 Rooska, Rathbaun, Lisdoonvarna, Co. Clare, V95 X5Y6, Ireland",53.028258,-9.290828
399,Enp0358,Publican's Licence (7-Day Ordinary),Mary Donnelly,Five Arches,,Knappogue,Clondegad,Clondervalan,Co. Clare,"Five Arches, Knappogue, Clondegad, Clondervalan, Co. Clare","Knopoge, Knappogue, Co. Clare, Ireland",52.79818,-8.834349999999999
400,Enp0072,Publican's Licence (7-Day Ordinary),Larchill Publicans Limited,Patrick's Bar,Gavin Hanrahan,6 Upper Market Street,Ennis,,Co. Clare,"Patrick's Bar, 6 Upper Market Street, Ennis, Co. Clare","6-8 Market Pl, Clonroad Beg, Ennis, Co. Clare, Ireland",52.84259669999999,-8.9852344
401,Enp0375,Publican's Licence (7-Day Ordinary),Mmd Rockland Limited,Hyland Burren Hotel,,Knockgroagh,Ballyvaughan,,Co. Clare,"Hyland Burren Hotel, Knockgroagh, Ballyvaughan, Co. Clare","Main Street, Ballyvaughan, Co. Clare, H91 EY00, Ireland",53.11526910000001,-9.149296399999999
402,Enp0216,Publican's Licence (7-Day Ordinary),Brian Johnson,Johnsons Bar,,Kilrush,,,Co. Clare,"Johnsons Bar, Kilrush, Co. Clare","Henry St, Kilrush, Co. Clare, Ireland",52.6382616,-9.4845258
403,Enp0041,Publican's Licence (7-Day Ordinary),Brian Clarke And Terence Clarke,Clarkes,,Crusheen,Ennis,,Co. Clare,"Clarkes, Crusheen, Ennis, Co. Clare","Ennis, Co. Clare, Ireland",52.8474255,-8.988738399999999
404,Enp0361,Publican's Licence (7-Day Ordinary),Shib Limited,The Shibeen,Donagh Vaughan,Noughaval,Doora,,Co. Clare,"The Shibeen, Noughaval, Doora, Co. Clare","Clarinbridge Business Park, Kilcornan, Clarinbridge, Co. Galway, Ireland",53.2356707,-8.8718203
405,Lip0949,Publican's Licence (7-Day Ordinary),Noel Gleeson,Gleeson's Bar,,Main Street,Kilkishen,,Co. Clare,"Gleeson's Bar, Main Street, Kilkishen, Co. Clare","Main St, Clonlea, Kilkishen, Co. Clare, Ireland",52.807334,-8.7461685
406,Enp0371,Publican's Licence (7-Day Ordinary),Grafi Catering Company Limited,Linnanes Lobster Bar,,New Quay,Burren,,Co. Clare,"Linnanes Lobster Bar, New Quay, Burren, Co. Clare","Cartron, New Quay, Co. Clare, Ireland",53.155832,-9.075599
407,Enp0214,Publican's Licence (7-Day Ordinary),Francis Gerard Malone And Margaret Malone,Haven Arms,,Henry Street,Kilrush,,Co. Clare,"Haven Arms, Henry Street, Kilrush, Co. Clare","Henry St, Drimna, Kilrush, Co. Clare, Ireland",52.6385137,-9.4847068
408,Enp0237,Publican's Licence (7-Day Ordinary),Caprifield Hotel Limited,The Ritz,,Lisdoonvarna,,,Co. Clare,"The Ritz, Lisdoonvarna, Co. Clare","The Ritz Hotel The Sq, Lisdoonvarna, Co. IE, Ireland",53.0293195,-9.2891726
409,Enp0395,Publican's Licence (7-Day Ordinary),First Lane Restaurants Limited,Danny Mac's Café Bar,,Main Street,Lahinch,,Co. Clare,"Danny Mac's Café Bar, Main Street, Lahinch, Co. Clare","Main St, Dough, Lahinch, Co. Clare, Ireland",52.9325631,-9.3462958
