index,trading_name,latitude,longitude,Address
0,Lawlor's,52.6980223,-6.9314953,"Kilcarrig St, Co. Carlow, Ireland"
2,The Tara Arms,52.8032534,-6.734699699999999,"Tara Arms, Church Street, Tullow, Co. Carlow, R93 T6K9, Ireland"
4,The Ridge Bar,52.7364507,-7.02344,"Oldleighlin, Co. Carlow, Ireland"
7,Joe Doyles,52.7389883,-6.769584800000001,"Main Street, Ballon, Co. Carlow, Ireland"
8,The Red Lion,52.7027704,-6.9617891,"Regent Street, Muine Bheag, R21 F300, Ireland"
10,Carey's Pub,52.35180829999999,-7.711275,"47 Irishtown, Greenan, Clonmel, Co. Tipperary, Ireland"
11,Carpe Diem,52.8387338,-6.9302297,"Court Pl, Graigue, Carlow, Ireland"
12,Jimmy D's,52.702641,-6.9603721,"Regent St, Moneybeg, Muine Bheag, Co. Carlow, Ireland"
17,The Ardattin Inn,52.7536065,-6.706720499999999,"Ardattin, Carlow, Ireland"
20,Lawlors,52.7020998,-6.956016699999999,"Market Square, Kilcarrig, Bagenalstown, Co. Carlow, Ireland"
21,High Nellys,52.6737766,-6.8413742,"Milltown, Co. Carlow, Ireland"
23,O'loughlin's Bar,52.8371886,-6.931819099999999,"53 Dublin St, Graigue, Carlow, R93 R221, Ireland"
27,Walshes,52.84305939999999,-6.7890643000000015,"Killerrig, Co. Carlow, Ireland"
28,The Med Bar,52.8361963,-6.928342799999999,"112 Tullow St, Carlow, Ireland"
29,Meaney's Bar,52.7362346,-6.979156799999999,"Main St, Ballyknockan, Co. Carlow, Ireland"
30,J J's Bar,52.8023919,-6.7360196,"Mill St, Templeowen, Tullow, Co. Carlow, Ireland"
32,The Grove,,,
33,Murphy's,52.5722332,-6.861485,"Ballymurphy, Co. Carlow, Ireland"
34,Molloys Public House,53.2880048,-6.359526300000001,"24 Main St, Tallaght, Dublin, Ireland"
36,The Mall,52.8429787,-6.977504199999999,"Clonmore, Killeshin, Co. Laois, Ireland"
38,Bridge House Finlans,61.92410999999999,25.7481511,Finland
39,Racey Byrne's The Plough,52.8361648,-6.9257332,"83 Tullow St, Carlow, Ireland"
41,Palatine House,52.8649974,-6.861034699999999,"Killyshane, Palatine, Co. Carlow, Ireland"
43,Dicey Reilly's,52.8371925,-6.9358857,"Centaur St, Graigue, Carlow, Ireland"
45,The Castle Inn,52.8366851,-6.9360835,"Castle Hill, Graigue, Carlow, Ireland"
46,The Barracks Bar,52.8360764,-6.9289627,"32 Tullow St, Graigue, Carlow, Ireland"
47,Glenside,52.84819779999999,-6.9908724,"Killeshin Rd, Clonmore, Carlow, Co. Laois, Ireland"
48,The Garrison Bar,52.73621,-6.97769,"Main St, Ballyknockan, Leighlinbridge, Co. Carlow, Ireland"
49,Bolands Bar And Lounge,52.8646985,-6.5576991,"Main St, Hacketstown Upper, Hacketstown, Co. Carlow, Ireland"
54,Ewings,52.8376227,-6.932743500000001,"Hay Market, Graigue, Carlow, Ireland"
61,Sheriff Guevaras,52.8372992,-6.9296494,"11 Brown St, Graigue, Carlow, Ireland"
62,Mcsiuls,53.3540317,-6.264429900000001,"Rotunda, Dublin, Ireland"
64,The Rainbow Bar,52.73279489999999,-6.9816803,"Church St, Leighlinbridge, Co. Carlow, Ireland"
65,Scraggs Alley,52.8363696,-6.931325999999999,"12 Tullow St, Graigue, Carlow, R93 PP79, Ireland"
70,The Thatch Bar,52.8372743,-6.938454999999999,"5 Maryborough St, Graiguecullen, Carlow, Co. Carlow, R93 H4F8, Ireland"
71,Lennons,52.8379139,-6.9280052,"Old Dublin Rd, Graigue, Carlow, Ireland"
73,The Royal Oak Tavern,52.7013971,-6.985793900000001,"Clorusk Lower, Co. Carlow, Ireland"
74,The Granite House,52.8027483,-6.7370714,"Granite House, Bridge St, Templeowen, Tullow, Co. Carlow, Ireland"
76,The Fighting Cocks,52.7604382,-6.8519152,"Templepeter, Co. Carlow, Ireland"
79,Carpenter's,52.8351456,-6.9259146,"10 Barrack St, Carlow, Ireland"
80,Reddys Of Carlow,52.836017,-6.9254798,"67 Tullow St, Carlow, Ireland"
82,The Hogan Stand,52.8017811,-6.738625799999999,"Abbey Close, Templeowen, Tullow, Co. Carlow, Ireland"
89,The Pint Depot,52.7013971,-6.985793900000001,"Clorusk Lower, Co. Carlow, Ireland"
90,The High Trees,52.89297,-7.020919999999999,"Rathtillig, Arles, Co. Laois, Ireland"
91,Daltons Public House,52.8027041,-6.7370452,"Bridge House, Abbey St, Templeowen, Tullow, Co. Carlow, Ireland"
94,The Kilree Arms,52.699971,-6.957948099999999,"Kilree St, Co. Carlow, Ireland"
103,Joyce's,52.6003362,-6.923970400000001,"Main St, Knocknagundarragh, Borris, Co. Carlow, Ireland"
109,Jd Wetherspoon Ireland,53.3892063,-6.3888826,"Westend Retail Park, Blanchardstown, Dublin 15, Co. Dublin, Ireland"
111,Teach Dolmen,52.8361913,-6.9254396,"76 Tullow St, Carlow, R93 NY70, Ireland"
112,Conways,52.6834393,-6.6848611,"Kildavin, Bunclody, Co. Wexford, Ireland"
113,The Lord Bagenal,52.73616999999999,-6.976642000000001,"Main St, Ballyknockan, Leighlinbridge, Co. Carlow, Ireland"
115,The John Tyndall,52.8351435,-6.9256408,"Barrack St, Carlow, Co. Carlow, Ireland"
118,The Railway House,52.7006076,-6.9573152,"Kilcarrig, Co. Carlow, Ireland"
122,Griffin's Lounge,52.803053,-6.736097699999999,"The Square, Tullowphelim, Tullow, Co. Carlow, Ireland"
125,The Rathvilly Inn,52.8572189,-6.6728871,"Germaines, Rathvilly, Co. Carlow, Ireland"
127,O'kelly's,52.8365072,-6.9341359,"Carlow, Ireland"
132,Kelly's Bar,52.73279489999999,-6.9816803,"Church St, Ballyknockan, Leighlinbridge, Co. Carlow, Ireland"
134,Tully's Bar,52.836536100000004,-6.9315834999999995,"148-149 Tullow St, Graigue, Carlow, R93 W243, Ireland"
141,Estoria,52.7020287,-6.957647499999999,"Main St, Kilcarrig, Bagenalstown, Co. Carlow, Ireland"
144,The Irishman,52.83879659999999,-6.929956,"College St, Graigue, Carlow, Ireland"
146,Forans Public House,52.8027041,-6.7370452,"Bridge House, Abbey St, Templeowen, Tullow, Co. Carlow, Ireland"
149,Kavanagh's,52.738981,-6.770293,"Main St, Ballon, Co. Carlow, Ireland"
153,Castle Off Licence,52.26916800000001,-9.700069,"80 Boherbee, Cloonalour, Tralee, Co. Kerry, Ireland"
159,Nancy Whiskey's,52.8372856,-6.9329671,"Hay Market, Graigue, Carlow, Ireland"
160,Osborne's Pub,52.6012189,-6.8324591,"Rathanna, Co. Carlow, Ireland"
161,John A's,52.4911459,-6.9297737999999995,"Ballyknock, St Mullin's, Co. Carlow, Ireland"
163,Blanchfields,52.4877016,-6.928736000000001,"The Quay, Saint Mullin's, Co. Carlow, Ireland"
164,Miller's Bar,52.83164679999999,-6.9098418,"Carlow, Ireland"
165,The Deereen Inn,52.80110260000001,-6.7351142,"Mill Street, Templeowen, Tullow, Co. Carlow, Ireland"
166,The Corner,52.8646985,-6.5576991,"Main St, Hacketstown Upper, Hacketstown, Co. Carlow, Ireland"
170,Eagle Bar,53.9236832,-7.582612200000001,"Main St, Arvagh, Co. Cavan, Ireland"
172,The Oakland Arms,54.0730415,-7.0833206,"22 Bridge St, Drumaveil North, Cootehill, Co. Cavan, Ireland"
173,The Swan Bar,54.1937636,-7.7047113,"Hawkswood, Swanlinbar, Co. Cavan, Ireland"
175,The Thomas Ashe,53.9923635,-7.3608567,"Thomas Ashe St, Abbeyland, Cavan, Ireland"
181,The Stray Sod,54.0410603,-7.223724,"Drung, Aghnadaragan, Drung, Co. Cavan, Ireland"
185,The Beer Garden,53.8645112,-7.2050786,"Stradone St, Cornahilt, Ballyjamesduff, Co. Cavan, Ireland"
186,Crannog,53.9304706,-7.409794400000001,"Main Street Ballinagh Cavan, Ballinagh, Co. Cavan, Ireland"
187,Mcseain's Cornafean,53.9467273,-7.4864902,"Cornafean, Co. Cavan, Ireland"
188,The Vault Bar,53.989838,-7.360364499999999,"47 Main St, Townparks, Cavan, Ireland"
189,The Riverfront Hotel,53.8348337,-7.0823719,"5 Main St, Rahardrum, Virginia, Co. Cavan, A82 N9X7, Ireland"
192,Clarke's Xl,53.9174592,-6.9722068,"Lower Main Street, Beckscourt, Bailieborough, Co. Cavan, Ireland"
193,Crossans,53.9160804,-6.9695699,"Main St, Tanderagee, Bailieborough, Co. Cavan, Ireland"
196,The Castle Sport Bar And Lounge,54.100623,-7.444873,"No, 4 The Diamond, Belturbet, Co. Cavan, Ireland"
197,The Whiskey Barrell And Donohoes Bar,52.5029204,-6.5727062,"Duffry Gate, Templeshannon, Enniscorthy, Co. Wexford, Ireland"
198,Nicholas O'hara,53.9236832,-7.582612200000001,"Main St, Arvagh, Co. Cavan, Ireland"
199,The Imperial Hotel,53.989838,-7.360364499999999,"47 Main St, Townparks, Cavan, Ireland"
200,The Vintage Bar,54.0157047,-7.529079299999999,"Main St, Portaliff Glebe, Killashandra, Co. Cavan, Ireland"
201,Crosskeys Inn,53.919272,-7.265253999999999,"Killatain Cross keys Cavan, Cross keys, Cavan, Ireland"
203,An Cruiscin Lan,53.9888394,-7.3606068,"82 Main St, Townparks, Cavan, H12 F3X9, Ireland"
205,Laragh House,53.9945761,-7.217962300000001,"Laragh House, Larah, Stradone, Co. Cavan, Ireland"
206,The Hideaway Bar,53.9279315,-7.0035481,"Cavan Rd, Leiter, Bailieborough, Co. Cavan, Ireland"
213,Willows,53.9049519,-6.8047508,"Main St, Lisasturrin, Kingscourt, Co. Cavan, Ireland"
216,Langtrys,53.8636,-7.207944,"Granard Rd, Cornahilt, Ballyjamesduff, Co. Cavan, Ireland"
219,The Blackhorse Inn,53.9933931,-7.359576400000001,"Church St, Abbeyland, Cavan, Ireland"
220,Mccabe's,53.8630541,-7.2069897,"Chapel St, Cornahilt, Co. Cavan, Ireland"
222,The Bridge Tavern,53.9802948,-7.046678099999999,"Tullylorcan, Co. Cavan, Ireland"
223,The Molly Maguires,54.1171847,-7.5826478,"R205, Doon, Co. Cavan, Ireland"
224,Hannigans,54.0738777,-7.0811739,"38 Main st Cootehill Co. Cavan, Co. Cavan, Ireland"
225,Hannigans,54.0738777,-7.0811739,"38 Main st Cootehill Co. Cavan, Co. Cavan, Ireland"
230,Brady's The Cross,53.98207,-7.2366319,"Aghagolrick, Stradone, Co. Cavan, Ireland"
231,The Virginia Park Lodge,53.834777,-7.0931049999999995,"Virginia, Co. Cavan, Ireland"
232,E O'reilly,54.07309009999999,-7.083869200000001,"27 Bridge St, Drumaveil North, Cootehill, Co. Cavan, H16 RT92, Ireland"
233,Farnham Arms Hotel,53.99127799999999,-7.360043,"Main, Street, Cavan, H12 Y6E4, Ireland"
234,Arthurs Bar,53.343154,-6.281616,"28 Thomas St, Ushers, Dublin, Ireland"
236,Lees,54.1166597,-7.583624200000001,"R205, Doon, Co. Cavan, Ireland"
240,Fitzpatricks Tavern,53.8731771,-7.534035899999999,"Loch Gowna Main street, Cavan, Ireland"
242,The Lawn,54.1016935,-7.4458,"9 The Lawn, Corporation Lands, Belturbet, Co. Cavan, H14 K573, Ireland"
243,Kelly's,54.0157047,-7.529079299999999,"Main St, Portaliff Glebe, Killashandra, Co. Cavan, Ireland"
244,Cabra Castle,53.91373309999999,-6.7745750000000005,"Carrickmacross Rd, Cormey, Kingscourt, Co. Cavan, A82 EC64, Ireland"
246,The Cosy Bar,54.1011073,-7.445819,"7 Upper Bridge St, Corporation Lands, Belturbet, Co. Cavan, Ireland"
247,Tyrrell's,53.8113652,-6.944518,"Main St, Rosehill, Mullagh, Co. Cavan, Ireland"
249,The West End Bar,54.0729814,-7.0831615,"20 Bridge St, Drumaveil North, Co. Cavan, Ireland"
251,Jp's Bar And Lounge,53.98946669999999,-7.3602849,"57 Main St, Townparks, Cavan, Ireland"
254,Failte,53.9159193,-6.9691957,"Main St, Tanderagee, Bailieborough, Co. Cavan, Ireland"
255,The Derragarra Inn,54.0429804,-7.375216399999998,"Derragarra Inn, Derrygarra Lower, Butlers Bridge, Co. Cavan, Ireland"
256,The New York Bar,53.991858,-7.359743,"Unit 1, Convent Buildin, 12 Main St, Abbeyland, Cavan, Ireland"
260,Macgabhainns Bar,53.83432029999999,-7.081275,"Main St, Rahardrum, Virginia, Co. Cavan, Ireland"
263,The Lakeside Manor,53.818731,-7.05363,"Dublin Road, Virginia, Co. Cavan, Ireland"
264,The Square Bar,53.9156708,-6.9682185,"Market Square, Tanderagee, Bailieborough, Co. Cavan, Ireland"
267,Hall's,53.91665920000001,-6.9708232,"The Medical Hall, Main St, Beckscourt, Bailieborough, Co. Cavan, Ireland"
268,The Slieve Rossa,53.989666,-7.3633199,"Rossa Pl, Cavan, Ireland"
269,Shercock House,53.9954834,-6.8993158,"Market House, Main St, Lisdrumskea, Shercock, Co. Cavan, Ireland"
272,John Joe Lynch,53.8115204,-6.946396099999999,"Main St, Mullagh, Co. Cavan, Ireland"
274,Enagh House,53.83779,-7.073875999999999,"Bailieboro Road, Virginia, Co. Cavan, Rahardrum, Cavan, Ireland"
275,The Orchard,54.0015756,-7.3539496,"Drumalee, Co. Cavan, Ireland"
276,Donohoe,54.11657599999999,-7.583209999999999,"The Conall Building, Main St, Doon, Ballyconnell, Co. Cavan, Ireland"
281,The Silver Dove Bar,53.78711999999999,-7.053179800000001,"Ryefield, Moate, Co. Cavan, Ireland"
282,"T/a Pius, Polo Grounds Pub",53.8622042,-7.3211072999999995,"Tonylion, Co. Cavan, Ireland"
283,M And F's Bar,53.905797,-6.8052231,"41 Main St, Lisasturrin, Co. Cavan, Ireland"
284,The Top Of The Town,53.988269,-7.3603893,"James Connolly St, Townparks, Cavan, Ireland"
286,O'mahony's,53.9949614,-6.8978239,"Main St, Lisdrumskea, Shercock, Co. Cavan, Ireland"
288,Gartlans,53.90712689999999,-6.8050342,"5 Lower Main St, Lisasturrin, Kingscourt, Co. Cavan, Ireland"
289,The Meadowview Lounge,53.9835758,-7.3461921000000014,"Dublin Rd, Tirquin, Cavan, Ireland"
293,The Harbour,54.1027032,-7.4400349000000014,"Morrissey Park, Corporation Lands, Belturbet, Co. Cavan, Ireland"
299,The High Stool,53.863716,-7.2069763,"Anne St, Cornahilt, Ballyjamesduff, Co. Cavan, Ireland"
300,The Lavey Inn,53.9667038,-7.2292686,"Knockanoark, Co. Cavan, Ireland"
301,White Horse Hotel,54.07501569999999,-7.0801561,"Market St Market St, Killycramph, Cootehill, Co. Cavan, H16 NP73, Ireland"
303,Burns,53.9947712,-6.8971710999999996,"27 Main St Lisdrumskea Shercock Co. Cavan A81 Y298 Main St, Lisdrumskea, Shercock, Co. Cavan, A81 Y298, Ireland"
304,Murtagh's Pub,53.9053708,-6.8051046,"98 Main St, Lisasturrin, Kingscourt, Co. Cavan, Ireland"
305,Bradys,53.9908662,-7.360204199999999,"Main St, Abbeyland, Cavan, Ireland"
306,Gilsenans,54.01336389999999,-7.527651799999998,"Main St, Portaliff Glebe, Killashandra, Co. Cavan, Ireland"
310,Sheridans Pub,53.77693840000001,-7.5012256000000015,"Granard, Co. Longford, Ireland"
311,Mccaffrey's,54.0996679,-7.320118,"Redhill Demesne, Co. Cavan, Ireland"
312,The Castle Inn,53.9159598,-6.968588899999999,"Market Square, Tanderagee, Bailieborough, Co. Cavan, Ireland"
313,The Goal Post,53.9236832,-7.582612200000001,"Main St, Arvagh, Co. Cavan, Ireland"
315,Mullens,54.0740752,-7.0809916,"32 Market St, Drumaveil North, Cootehill, Co. Cavan, Ireland"
316,Murtaghs,53.91619979999999,-6.969980199999999,"26 Main St, Tanderagee, Bailieborough, Co. Cavan, A82 EV76, Ireland"
317,Clarkes Corner Bar,53.9053708,-6.8051046,"98 Main St, Lisasturrin, Kingscourt, Co. Cavan, Ireland"
318,The Seven Horse Shoes Hotel,54.1008667,-7.444041299999999,"12 Main St, Corporation Lands, Belturbet, Co. Cavan, Ireland"
319,Glan Bar,54.1921467,-7.892649100000001,"Tullytiernan, Glangevlin, Co. Cavan, Ireland"
320,Blessings,53.9916654,-7.3601009999999985,"92 Main St, Abbeyland, Cavan, Ireland"
321,The Ramor Lodge Hotel,53.833863,-7.080184099999999,"5 Main St, Rahardrum, Virginia, Co. Cavan, A82 N9X7, Ireland"
322,The Bellamori Arms,54.07359659999999,-7.0808743,"43 Market St, Drumaveil North, Cootehill, Co. Cavan, H16 AK74, Ireland"
324,The Royal Bar,53.8645112,-7.2050786,"Stradone St, Cornahilt, Ballyjamesduff, Co. Cavan, Ireland"
326,F Maguire,54.2914304,-7.8765719,"Main St, Tuam, Blacklion, Co. Cavan, Ireland"
327,Brady's,53.9908662,-7.360204199999999,"Main St, Abbeyland, Cavan, Ireland"
328,Dunne's Bar,53.9456242,-8.0955126,"Main St, Townparks, Carrick-On-Shannon, Co. Leitrim, Ireland"
329,Mccauls,53.98985279999999,-7.361252500000001,"10 Bridge St, Abbeyland, Cavan, Ireland"
330,Freeman's,53.9049519,-6.8047508,"Main St, Lisasturrin, Kingscourt, Co. Cavan, Ireland"
332,The Widows Bar,54.1008834,-7.443847399999999,"Main St, Corporation Lands, Co. Cavan, Ireland"
334,Crowes Corner,53.86443149999999,-7.2062225,"Dublin St, Cornahilt, Ballyjamesduff, Co. Cavan, Ireland"
335,Lynchs Bar,53.27661999999999,-7.495196999999999,"Kilbride St, Puttaghan, Tullamore, Co. Offaly, Ireland"
336,The Hillside Tavern,,,
338,Glann Bar And Lounge,53.8374919,-7.4338878,"Mullaghoran, Co. Cavan, Ireland"
340,Hughies,54.0520095,-7.804125099999999,"Main St, Cannaboe, Ballinamore, Co. Leitrim, Ireland"
341,The Woodford Arms,54.11594789999999,-7.5834017,"Bridge St, Cullyleenan, Ballyconnell, Co. Cavan, Ireland"
342,The Brewery,53.92378,-7.5845533,"R198, Drumnawall, Co. Cavan, Ireland"
343,The Brandywell Bar,54.11685139999999,-7.583253999999998,"R205, Doon, Co. Cavan, Ireland"
344,Colm's Bar,53.85825879999999,-7.2036906,"Oldcastle Rd, Ballyjamesduff, Co. Cavan, Ireland"
345,The Stables Bar,54.1940237,-7.704355399999999,"Main St, Swanlinbar, Co. Cavan, Ireland"
348,Shamrock Inn,54.01336389999999,-7.527651799999998,"Main St, Portaliff Glebe, Killashandra, Co. Cavan, Ireland"
349,Flynns Bar,54.102111,-7.450875999999999,"Kilconny, Ballyconnell Road, Belturbet, Co. Cavan, Ireland"
350,Lizzies,54.11730009999999,-7.586307399999999,"Church St, Doon, Ballyconnell, Co. Cavan, Ireland"
351,The Dugout,54.2909805,-7.874738299999999,"An Bonnán Buí Way, Tuam, Blacklion, Co. Cavan, Ireland"
352,The Tank,53.9308565,-7.3212726,"Denncross, Carrickaboy, Co. Cavan, Ireland"
354,Malones Bar,53.9044515,-6.804848199999999,"Main St, Lisasturrin, Kingscourt, Co. Cavan, Ireland"
355,Whites,53.8737878,-7.533784,"1 Lough View, Loch Gowna, Co. Cavan, H12 HD98, Ireland"
356,Lynch's,53.9241134,-7.583031399999999,"Pound St, Drumalt, Arvagh, Co. Cavan, Ireland"
358,The Shantully Inn,53.953361,-7.434547899999999,"Shantully, Crossdoney, Co. Cavan, Ireland"
360,Ballymac Inn,54.06122999999999,-7.737891400000001,"Garadice, Co. Leitrim, Ireland"
361,Kangley's Pub,53.91687659999999,-6.9708872,"Main St, Beckscourt, Bailieborough, Co. Cavan, Ireland"
362,Rocks Of Bawn,53.957349,-7.434313,"The Rocks, Crossdoney, Co. Cavan, Ireland"
363,Caseys Steak Bar,53.932216,-7.408003,"Main St, Bellananagh, Ballinagh, Co. Cavan, Ireland"
364,The Bridge Inn,53.8333977,-7.267089299999999,"Kilbride, Co. Cavan, Ireland"
365,The Whistlestop,53.8348337,-7.0823719,"5 Main St, Rahardrum, Virginia, Co. Cavan, A82 N9X7, Ireland"
366,The Shannon House,54.1900827,-8.0162777,"Dowra, Co. Cavan, Ireland"
369,The Duckin Stool,54.1008355,-7.444153699999999,"Main St, Corporation Lands, Belturbet, Co. Cavan, Ireland"
370,The Wishing Well,53.906175,-6.80483,"Main St, Lisasturrin, Kingscourt, Co. Cavan, Ireland"
372,Donohoes Lounge Bar,53.9053708,-6.8051046,"98 Main St, Lisasturrin, Kingscourt, Co. Cavan, Ireland"
373,M. Giles And Sons,53.9153971,-6.969545999999999,"Barrack St, Tanderagee, Bailieborough, Co. Cavan, Ireland"
374,Loughbawn Hotel,54.0137769,-7.5281641000000015,"Main St, Portaliff Glebe, Killeshandra, Co. Cavan, Ireland"
375,High Ball Inn,54.0452119,-7.3769588,"Derrygarra Lower, Butlers Bridge, Co. Cavan, Ireland"
376,Reasons,53.86360819999999,-7.208035000000001,"Granard St, Cornahilt, Ballyjamesduff, Co. Cavan, Co. Cavan, Ireland"
377,Brady Brothers,54.0473393,-7.3155094,"Raheg, Ballyhaise, Co. Cavan, Ireland"
378,Maura's Bar,53.9887393,-7.360616299999999,"86 Main St, Townparks, Cavan, H12 P2K2, Ireland"
380,Boylans Bar And Lounge,53.85724370000001,-6.5400658,"29 Market St, Cappocksgreen, Ardee, Co. Louth, Ireland"
381,Feehans Pub,54.11892030000001,-7.7478236,"R202, Muineal, Co. Cavan, Ireland"
382,The White Star,53.9903947,-7.3602712000000015,"Main St, Abbeyland, Cavan, Ireland"
383,Kiernan,53.8401977,-7.369859099999999,"Aghakilmore, Callowhill, Co. Cavan, Ireland"
385,Paddy O'leary,54.0728307,-7.0828685,"14 Bridge St, Drumaveil North, Cootehill, Co. Cavan, Ireland"
386,Mcginnity's Bar,53.98946129999999,-7.363038899999999,"1 Rossa Pl, Townparks, Cavan, Ireland"
387,Royal Hotel,54.0137769,-7.5281641000000015,"Main St, Portaliff Glebe, Killeshandra, Co. Cavan, Ireland"
388,Fitzsimons,53.345569,-6.265124999999999,"21/22 Wellington Quay, Temple Bar, Dublin, Ireland"
391,Delaneys Bar,53.9884581,-7.360399999999999,"James Connolly St, Townparks, Cavan, Ireland"
392,Con J.smith,54.0452119,-7.3769588,"Derrygarra Lower, Butlers Bridge, Co. Cavan, Ireland"
393,Cheers Bar,53.8634862,-7.2081737,"Anne St, Co. Cavan, Ireland"
394,The Kesh Bar,53.9757264,-7.352611800000001,"Gortnakesh, Co. Cavan, Ireland"
396,Sean Mcbrien Connolly's Bar,54.0751309,-7.0859659,"Bridge St, Cootehill, Co. Cavan, Ireland"
397,Kittys,53.9894712,-7.360575099999999,"Main St, Townparks, Cavan, Ireland"
401,James Matthews,53.8347744,-7.082624999999999,"Main St, Rahardrum, Virginia, Co. Cavan, Ireland"
402,Village Inn,54.0499569,-7.1448497,"Cornabraher, Tullyvin, Co. Cavan, Ireland"
403,Fox's,53.91696349999999,-6.9705623,"Main St, Beckscourt, Bailieborough, Co. Cavan, Ireland"
406,Bradys,53.93182400000001,-7.407273999999999,"Main St, Bellananagh, Ballinagh, Co. Cavan, Ireland"
407,Mcmahons Cafe Bar,53.9910112,-7.360177299999998,"97 Main St, Abbeyland, Cavan, Ireland"
408,The Railway Bar,54.100623,-7.444873,"No, 4 The Diamond, Belturbet, Co. Cavan, Ireland"
409,Killians Lodge Hotel,53.8113453,-6.9454036,"Main St, Rosehill, Mullagh, Co. Cavan, Ireland"
413,Drumlane Bar,54.100623,-7.444873,"No, 4 The Diamond, Belturbet, Co. Cavan, Ireland"
414,Fionas Bar,53.8617381,-7.320852200000001,"Flat 1, Upper Main St, Tonylion, Kilnaleck, Co. Cavan, Ireland"
416,Lisgrey House,53.8656741,-7.1159091,"Lisgrey Cross, Lisgrea, Virginia, Co. Cavan, Ireland"
418,Eamons Piano Bar,54.2909805,-7.874738299999999,"An Bonnán Buí Way, Tuam, Blacklion, Co. Cavan, Ireland"
419,Smyths Bar,53.8617381,-7.320852200000001,"Flat 1, Upper Main St, Tonylion, Kilnaleck, Co. Cavan, Ireland"
420,Fitzpatrick's,53.8731771,-7.534035899999999,"Loch Gowna Main street, Cavan, Ireland"
422,The Benjam Inn,53.9160804,-6.9695699,"Main St, Tanderagee, Bailieborough, Co. Cavan, Ireland"
425,Mcnamee's,53.19923439999999,-8.5646653,"H62 XW92, 12 Bride St, Loughrea, Co. Galway, Ireland"
428,Yukon Bar,54.1018527,-7.4417381,"Holborn Hill, Corporation Lands, Belturbet, Co. Cavan, Ireland"
429,Micsin's,53.77693840000001,-7.5012256000000015,"Granard, Co. Longford, Ireland"
430,The Crow's Nest,54.1170495,-7.5828785,"R205, Doon, Co. Cavan, Ireland"
431,The Flying Saucer,54.0651612,-7.3358655,"18 Main St, Drumliff, Belturbet, Co. Cavan, H14 TP48, Ireland"
433,Mcbrides,53.8644256,-7.207211000000001,"Market St, Cornahilt, Ballyjamesduff, Co. Cavan, Ireland"
439,Melrose Inn,54.1900831,-8.015435,"Dowra, Co. Leitrim, Ireland"
442,The Porterhouse,53.9049519,-6.8047508,"Main St, Lisasturrin, Kingscourt, Co. Cavan, Ireland"
443,The Abbey Bar,53.9896178,-7.363390099999999,"Coleman Road, Abbeyland, Cavan, Ireland"
444,The Keepers Arms,54.1205097,-7.676627,"Corrasmongan, Bawnboy, Co. Cavan, Ireland"
445,Smyths Bar,52.6640553,-8.622281,"Denmark St, Limerick, V94 K6WH, Ireland"
446,M Tubridy,52.701926,-9.419027,"Main Street, Cooraclare, Co. Clare, Ireland"
448,Knoxs,52.8449404,-8.9823711,"18 Abbey St, Lifford, Ennis, Co. IE, V95 AX83, Ireland"
450,O'connors Bar,53.012567,-9.386521000000002,"Fisher St, Ballyvara, Doolin, Co. Clare, V95 FY67, Ireland"
451,The Fergus Inn,52.789468,-8.915143,"Latoon North, Newmarket on Fergus, Co. Clare, Ireland"
454,Michael A's,52.8557587,-9.4007728,"Main St, Leagard North, Co. Clare, Ireland"
455,The Hunter's Lodge,52.760713,-8.896323899999999,"Ennis road, Newmarket-on-Fergus, Co. Clare, Ireland"
456,Burke's Armada Hotel,52.8451737,-9.4365209,"Spanish Point, Miltown Malbay, Co. Clare, Ireland"
458,Murphy's,52.679947,-9.646246,"Dough, Kilkee, Co. Clare, Ireland"
460,Rathbaun Hotel,53.0289,-9.289748999999999,"Main St, Rathbaun, Lisdoonvarna, Co. Clare, Ireland"
461,The Daggers,52.712892,-8.6038898,"Parkroe, Co. Clare, Ireland"
463,The Corner Bar,52.8436107,-8.9869072,"74 Parnell St, Clonroad Beg, Ennis, Co. Clare, Ireland"
464,The Half Barrell,52.9518694,-8.3719086,"Whitegate, Lakyle, Whitegate, Co. Clare, Ireland"
466,Gallaghers Seafood Restaurant,52.699105,-8.816455999999999,"Bunratty West, Bunratty, Co. Clare, Ireland"
474,Gallahers Bar,53.2750808,-7.491415,"Church St, Tullamore, Co. Offaly, Ireland"
475,The Gallows Inn,51.8926277,-8.4813385,"160 Bandon Rd, The Lough, Cork, T12 TH22, Ireland"
477,The Blacksticks Bar,52.8622301,-8.6524366,"Silvergrove, Co. Clare, Ireland"
482,Lucas Bar,52.8436107,-8.9869072,"74 Parnell St, Clonroad Beg, Ennis, Co. Clare, Ireland"
483,Setrights Tavern,52.6940383,-8.758062899999999,"Laghile, Co. Clare, Ireland"
486,Supervalue,52.86747800000001,-8.7575519,"Main St, Tulla, Clare, Ireland"
487,Tir Na Nóg,52.6924765,-9.2254726,"Carrowreagh East, Cranny, Co. Clare, Ireland"
488,The Creamery Bar And Restaurant,52.6964371,-8.813104899999999,"Old Bunratty Rd, Bunratty West, Bunratty, Co. Clare, V95 CC85, Ireland"
489,Auburn Lodge Hotel,52.865538,-8.9811858,"Gort Rd, Ballycorey, Ennis, Co. Clare, Ireland"
493,Navins Bar,52.8147284,-8.9660315,"Barrack St, Clare Commons, Clarecastle, Co. Clare, Ireland"
494,Daffy's Bar,52.9454722,-9.0654715,"Main St, Corofin, Co. Clare, Ireland"
496,Walsh's Bar,52.7462526,-9.4298868,"Creegh South, Co. Clare, Ireland"
500,O Loclainn,53.1162333,-9.1504575,"Ballyvaughan, Co. Clare, Ireland"
505,Kellys Bar And Restaurant,52.6393674,-9.485259899999999,"26 Henry St, Drimna, Kilrush, Co. Clare, Ireland"
509,Norrie Henchys,52.8568763,-8.8508756,"Clooney, Sraheen, Quin, Co. Clare, Ireland"
510,May Kearneys,52.84762139999999,-8.9818932,"2 Newbridge Rd, Lifford, Ennis, Co. Clare, V95 H778, Ireland"
513,The Claremont Hotel,52.9329232,-9.3462553,"Main St, Dough, Lahinch, Co. Clare, Ireland"
516,O'hallorans Bar,52.84462449999999,-8.9827546,"2 Abbey St, Clonroad Beg, Ennis, Co. Clare, Ireland"
517,Kellys Bar And Lounge,52.8426779,-8.987601699999999,"5 Carmody St, Clonroad Beg, Ennis, Co. Clare, Ireland"
518,The Cobblers Rest,52.8844524,-8.597113,"Bodyke, Broadford, Scarriff, Co. Clare, Ireland"
519,The Long Dock,52.604006,-9.710766,"West St, Rinemackaderrig, Carrigaholt, Co. Clare, Ireland"
521,Macs Bar,52.69956819999999,-8.811922599999999,"Bunratty West, Bunratty, Co. Clare, Ireland"
524,Whelans Bar Or Considine's Bar,52.88772549999999,-8.9474661,"Barefield, Ennis, Co. Clare, Ireland"
527,The Ocean View Park,52.9245592,-9.3473352,"Ocean View, Crag, Lahinch, Co. Clare, Ireland"
528,Kelly's,52.8433117,-8.9841325,"11A Lower Market St, Clonroad Beg, Ennis, Co. Clare, V95 RX74, Ireland"
529,Crotty's Bar And Restaurant,52.63818699999999,-9.484591,"Market Square, Drimna, Kilrush, Co. Clare, Ireland"
532,Ciaran's Bar,52.84519,-8.981310500000001,"2 Francis St, Lifford, Ennis, Co. Clare, Ireland"
535,Shenanigan's Public House,52.63818699999999,-9.484591,"Market Square, Drimna, Kilrush, Co. Clare, Ireland"
538,The Pump House,52.7769813,-8.782845499999999,"Ballymulcashel, Sixmilebridge, Co. Clare, Ireland"
540,The Galleon Bar,52.6312185,-9.496886,"Cappa Dr, Cappagh, Kilrush, Co. Clare, Ireland"
541,Morrisseys Pub,52.7310041,-9.524572899999999,"Main St, Doonbeg, Co. Clare, Ireland"
543,Considines Bar,52.84408,-8.98427,"15 Parnell St, Clonroad Beg, Ennis, Co. Clare, V95 VW59, Ireland"
544,The Diamond Bar,52.843418,-8.9830353,"25 O'Connell Street, Clonroad Beg, Ennis, Co. Clare, Ireland"
547,Ritchie's Bar,52.6780632,-9.6497166,"O'Curry St, Dough, Kilkee, Co. Clare, Ireland"
550,Copper Jug,52.8483627,-8.981633,"Courtview, Lifford, Ennis, Co. Clare, Ireland"
551,The Fisherman's Hut,52.6284625,-9.332776299999999,"Kilmore, Knock, Co. Clare, Ireland"
552,Foley's Bar,52.59893779999999,-9.774122499999999,"Cross, Co. Clare, Ireland"
553,Carmody's,52.6039903,-9.7109595,"West St, Rinemackaderrig, Carrigaholt, Co. Clare, Ireland"
554,The Greyhound Bar,52.74322129999999,-8.7724318,"Mountievers, Co. Clare, Ireland"
556,Jack's Place,52.80593630000001,-8.7512648,"Main St, Gortnaglearagh, Kilkishen, Co. Clare, Ireland"
557,Daly's  Bar,52.9405911,-9.293399899999999,"Main St, Ennistimon, Co. Clare, Ireland"
558,The Commercial,52.6608277,-8.6280941,"46-47 Catherine St, Limerick, V94 T2V3, Ireland"
560,Bogdale House,52.7957504,-9.188685399999999,"Lisroe Road, Boolyneaska, Kilmaley, Co. Clare, Ireland"
561,Meg Maguires,53.0301669,-9.2897106,"Rathbaun, Lisdoonvarna, Co. Clare, Ireland"
562,Marrinans Bar,52.8556831,-9.4007556,"Main St, Leagard North, Miltown Malbay, Co. Clare, Ireland"
563,Mac's Bar,52.9325631,-9.3462958,"Main St, Dough, Lahinch, Co. Clare, Ireland"
565,Windswept Inn,52.8674206,-8.7568951,"Tulla, Co. Clare, Ireland"
566,Doyles,52.997071,-8.720113,"Caher, Drumandoora, Caher, Co. Clare, Ireland"
568,Friel's Bar,52.8545114,-9.401247099999999,"Mullagh Rd, Leagard North, Miltown Malbay, Co. Clare, Ireland"
569,Gregans Castle Hotel,53.0771088,-9.1841903,"Gregans Castle Hotel, Corkscrew Hill, Gragan East, Ballyvaughan, Co. Clare, H91 CF60, Ireland"
571,Clancy's Bar,52.6732644,-9.5882176,"Kilrush Rd, Garraun, Kilkee, Co. Clare, Ireland"
574,The Imperial Hotel,53.0281569,-9.289534399999999,"Main St, Rathbaun, Lisdoonvarna, Co. Clare, Ireland"
575,Hydro Hotel,53.0268849,-9.2906322,"Rathbaun, Co. Clare, Ireland"
577,Ryan Darbys Public House,52.7527002,-8.498597,"O'Briensbridge, Co. Clare, Ireland"
578,The Shanachaoi Bar,52.81104699999999,-8.444048,"Ballina/Killaloe, Co. Clare, Ballina, Killaloe, Co. Clare, V94E2D6, Ireland"
580,The Crossroads Bar,52.7098749,-9.2617764,"N68, Corraige, Co. Clare, Ireland"
584,Queens Hotel,52.845523,-8.981698,"Abbey St, Ennis, Co. Clare, Ireland"
585,Hotel Doolin,53.01632499999999,-9.376538,"Rivervale, Teergonean, Doolin, Co. Clare, Ireland"
586,The Old Brogue Bar,52.6172201,-9.3812205,"Kilrush ferry, Burrane Lower, Kilrush, Co. Clare, Ireland"
587,Peppers Bar,52.93103809999999,-8.636906,"Feakle, Co. Clare, Ireland"
589,O'looneys,52.93283599999999,-9.34752,"Beech House Marine Parade Wild Atlantic Way, Lahinch, Co. Clare, V95 E9DD, Ireland"
593,The Irish Arms Hotel,53.0312686,-9.2895421,"1 Main St, Rathbaun, Lisdoonvarna, Co. Clare, V95 KHH4, Ireland"
596,The Ravine Hotel,53.030167,-9.289710999999999,"Lisdoonvarna Rathbaun, Clare, Ireland"
597,Cooney's Bar,52.72471179999999,-8.5546236,"Cloonlara, Co. Clare, Ireland"
601,Top Of The Town,52.808886,-8.4475152,"Shantraud, Killaloe, Co. Clare, Ireland"
603,The Drumquin Tavern,52.7673358,-9.024176599999999,"5-, 6 Craglands, Ennis, Co. Clare, Ireland"
607,Breen D Bar,52.7207134,-9.319435799999999,"Kilmihil, Co. Clare, Ireland"
609,Considines Bar,52.8440846,-8.9842652,"15 Parnell St, Clonroad Beg, Ennis, Co. Clare, V95 VW59, Ireland"
612,G. Browne,52.844094,-8.986946999999999,"Harbour House, Wood Quay, Clonroad Beg, Ennis, Co. Clare, Ireland"
613,"O'loughlins,ocean View Bar And Restaurant",52.8548936,-9.4011792,"Main St, Leagard North, Miltown Malbay, Co. Clare, Ireland"
616,Bill Mcgregor's Bar,52.7412593,-8.775683899999999,"Sixmilebridge, Co. Clare, Ireland"
619,Linnane's Pub,52.9904428,-9.2155246,"Main St, Maryville, Kilfenora, Co. Clare, Ireland"
620,Cooley's House,52.9406835,-9.2936906,"10 Main St, Ennistimon, Co. Clare, V95 H9AW, Ireland"
622,The Nightingale Bar,52.9518694,-8.3719086,"Whitegate, Lakyle, Whitegate, Co. Clare, Ireland"
624,King Thomond Hotel,53.02480910000001,-9.2840826,"The Bog Road, Lisdoonvarna, Co. Clare, Ireland"
628,Michael Fawl,52.8422078,-8.9836949,"69 O'Connell Street, Clonroad Beg, Ennis, Co. Clare, V95 X573, Ireland"
630,Powers Bar,53.4286545,-9.3188186,"Oughterard Post Office, Main St, Fough West, Oughterard, Co. Galway, Ireland"
632,The Abbey Tavern,52.8176812,-8.8643025,"Quin Rd, Quin, Ennis, Co. Clare, Ireland"
634,Hassett's Lounge Bar,52.88772549999999,-8.9474661,"Barefield, Ennis, Co. Clare, Ireland"
635,The Village Inn,52.81822649999999,-8.8657931,"Main Street, Quin, Quin, Co. Clare, Ireland"
637,Fogarty's Bar,52.9387558,-8.8971401,"1 Main Street, Crusheen, Co. Clare, V95 C430, Ireland"
641,The Halfway House,52.8309238,-8.980134999999999,"Clare Road, Ennis, Co. Clare, Ireland"
642,Joseph Mchugh,52.9385544,-9.3914633,"Main St, Liscannor, Co. Clare, Ireland"
645,The Greyhound Bar,52.6780225,-9.6495604,"O'Curry St, Dough, Kilkee, Co. Clare, Ireland"
646,Wild Atlantic Way Lodge,53.115786,-9.148145,"Main Street, Ballyvaughan, Co. Clare, Ireland"
648,Bellbridge House Hotel,52.837691,-9.429528,"Spanish Point, Dough, Miltown Malbay, Co. Clare, Ireland"
650,Morrissey's Bar,52.604006,-9.710766,"West St, Rinemackaderrig, Carrigaholt, Co. Clare, Ireland"
651,The Malbay,52.8557916,-9.4009082,"Main St, Leagard North, Miltown Malbay, Co. Clare, Ireland"
654,Meades,52.8569966,-9.401595,"Ennistymon Rd, Leagard North, Miltown Malbay, Co. Clare, Ireland"
656,Casey's Bar,52.741783,-8.7735507,"Main St, Sixmilebridge, Co. Clare, Ireland"
659,Durty Nellys,52.6964876,-8.8117153,"Bunratty West, Bunratty, Co. Clare, Ireland"
662,Kilcatherine,52.8693168,-8.903929699999999,"Kilcatherine House, Muckinish, Ennis, Co. Clare, Ireland"
665,The Piper's Inn,52.852455,-8.479642,"Ballyheefy, Killaloe, Co. Clare, Ireland"
667,Monks At The Pier,53.119761,-9.1547,"The Pier,, Ballyvaughan,, Co. Clare, H91 W9TN, Ireland"
668,Pot Duggans,52.93906819999999,-9.2932638,"New Rd, Ennistimon, Co. Clare, Ireland"
671,Lucas's,52.8436107,-8.9869072,"74 Parnell St, Clonroad Beg, Ennis, Co. Clare, Ireland"
672,Wuthering Heights Public House,52.8060302,-8.6328674,"Ardskeagh, Broadford, Co. Clare, Ireland"
674,Shannon Spprings Hotel,52.715101,-8.862287,"Ballycasey, Shannon, Co. Clare, V14 A336, Ireland"
676,The Anchor Bar,52.93860549999999,-9.3911433,"Liscannor, Co. Clare, Ireland"
679,Mickey Rooney's Bar,52.88693809999999,-8.4589842,"Ballyhurly, Ogonnelloe, Co. Clare, Ireland"
682,The Percy French Bar,52.637546,-9.482127199999999,"Moore St, Kilrush, Co. Clare, Ireland"
684,Johnny's Bar,52.9109144,-8.531428499999999,"Market Square, Ballyminoge, Scarriff, Co. Clare, Ireland"
687,The Hilltop Bar,52.6595209,-9.2143562,"Lissyvurriheen, Co. Clare, Ireland"
688,O'shea's Bar,52.723865,-8.5527026,"Cloonlara, Co. Clare, Ireland"
689,The Mills Tavern,52.8421732,-8.686002199999999,"Foxandgeese, O'Callaghansmills, Co. Clare, Ireland"
690,Shannon Knights Inn,52.7110173,-8.8801593,"Shannon Town Centre, Tullyvarraga, Shannon, Co. Clare, Ireland"
692,Vaughan's Bar,52.8047895,-8.633253,"Main St, Gortnaglogh, Broadford, Co. Clare, Ireland"
693,The Market House,52.94196299999999,-9.2933056,"Church St, Ennistimon, Co. IE, Ireland"
694,The Players Club,52.8556831,-9.4007556,"Main St, Leagard North, Miltown Malbay, Co. Clare, Ireland"
695,The Cornerstone,52.9320576,-9.3461295,"Main St, Dough, Lahinch, Co. Clare, Ireland"
697,O'deas,52.8416502,-8.9837093,"64 O'Connell Street, Clonroad Beg, Ennis, Co. Clare, V95 C6C4, Ireland"
700,Crowley's Bar,52.9445006,-9.063413299999999,"Main St, Laghtagoona, Corofin, Co. Clare, Ireland"
705,James Griffin,52.93918619999999,-9.2936974,"Bridge St, Ennistimon, Co. Clare, Ireland"
706,Flannan Mcarthur,52.867494,-8.757421500000001,"Main St, Tulla, Co. Clare, Ireland"
708,The Alders,52.6739112,-9.1081445,"Kildysart Rd, Killadysert, Ennis, Co. Clare, Ireland"
709,An Teach Ól,52.867494,-8.757421500000001,"Main St, Tulla, Co. Clare, Ireland"
711,Woodcross Bar,52.6984928,-8.7630188,"Cratloe, Laghile, Cratloe, Co. Clare, Ireland"
712,Moloney's Bar,52.7055636,-8.874182,"21 Coill Mhara, Tullyvarraga, Shannon, Co. Clare, Ireland"
713,Mcganns Pub,53.0183591,-9.3721392,"Main Street, Roadford, Doolin, Co. Clare, Ireland"
714,James Moroney Family Grocer And Co,52.8432246,-8.983895,"9 Lower Market St, Clonroad Beg, Ennis, Co. Clare, V95 HA89, Ireland"
715,Danny's Bar,52.80533879999999,-8.6327997,"Main St, Ardskeagh, Broadford, Co. Clare, Ireland"
716,Anglers Rest,52.9449962,-9.064177899999999,"2 Main St, Laghtagoona, Corofin, Co. Clare, Ireland"
717,The Honk Bar,52.7035613,-8.936654899999999,"Rineanna, Newmarket On Fergus, Co. Clare, Ireland"
719,Cahill's Shannon View,52.67215849999999,-9.1073139,"Killadysert, Co. Clare, Ireland"
723,The Central Bar,52.6780632,-9.6497166,"O'Curry St, Dough, Kilkee, Co. Clare, Ireland"
731,Fanny O'deas,52.7394624,-9.172687999999999,"Lissycasey, Ennis, Co. Clare, V95 DX08, Ireland"
732,Magpie Bar,52.8149889,-8.963362499999999,"6 Main St, Clare Commons, Ennis, Co. Clare, Ireland"
734,The Sports Bar,52.7604535,-8.896035699999999,"The Square, Newmarket On Fergus, Co. Clare, Ireland"
738,O'looney's Bar,52.93283599999999,-9.34752,"Beech House Marine Parade Wild Atlantic Way, Lahinch, Co. Clare, V95 E9DD, Ireland"
740,O'mara's Bar,52.6787204,-9.648286400000002,"12 O'Curry St, Dough, Kilkee, Co. Clare, Ireland"
741,The 19th,52.9321686,-9.345929,"Main St, Dough, Lahinch, Co. Clare, Ireland"
743,Stritch Public House,52.7240569,-8.5528377,"Cloonlara, Co. Clare, Ireland"
748,The Monks Well Inn,52.81822649999999,-8.8657931,"Main Street, Quin, Quin, Co. Clare, Ireland"
750,The Kilmaley Inn,52.81883149999999,-9.1088004,"Lipuckan, Kilmaley, Co. Clare, Ireland"
751,The West-bridge,52.8557542,-9.4009733,"Main St, Leagard North, Miltown Malbay, Co. Clare, Ireland"
752,Nuala's Bar And Restaurant,52.8987297,-8.5404565,"Tuamgraney, Scariff, Co. Clare, Ireland"
754,Keane's,52.9319139,-8.4288677,"Dooros, Co. Clare, Ireland"
761,Ballinalacken Castle Hotel,53.0464097,-9.337845699999999,"Coast Road, Doolin, Ireland"
763,"The Function Venue ""wedding Pavilion""",52.7460738,-9.502573,"Doughmore Bay, Doonbeg, Co. Clare, Ireland"
766,The Lahinch Golf And Leisure Hotel,52.93132199999999,-9.3454053,"Station Rd, Crag, Lahinch, Co. Clare, V95 VP9H, Ireland"
768,The Pub,52.7604617,-8.8955886,"Main St, Newmarket, Newmarket on Fergus, Co. Clare, Ireland"
770,Kilshanny House,52.9818076,-9.2981538,"Kilshanny House, Caherlooskaun, Kilshanny, Co. Clare, Ireland"
787,Taylors Bar,52.8425322,-8.9852232,"Lower Market St, Clonroad Beg, Ennis, Co. Clare, Ireland"
788,Brogan's Bar,52.8435084,-8.9826747,"24 O'Connell Street, Clonroad Beg, Ennis, Co. Clare, Ireland"
795,The Bellsfort Inn,52.7830484,-8.905636399999999,"Dromoland Castle Hotel, Dromoland, Newmarket-on-Fergus, Co. Clare, V95 ATD3, Ireland"
796,J J Rynne Bar And Foodstore,52.8769834,-9.176764499999999,"Carrowkeel East, Inagh, Co. Clare, Ireland"
797,The Quilty Tavern,52.8166419,-9.4556735,"Ennis Rd, Quilty West, Ennis, Co. Clare, Ireland"
798,The Burren Castle,53.0187591,-9.3157411,"Bog Rd, Aughiska More, Lisdoonvarna, Co. Clare, Ireland"
800,Jakkos,52.911541,-8.529060399999999,"Bridge Street, Scarriff, Co. Clare, Ireland"
801,Royal Spa Hotel,53.02877400000001,-9.290011,"Main St, Rathbaun, Lisdoonvarna, Co. Clare, Ireland"
803,The Central Hotel,52.8552252,-9.401232499999999,"Main Street, Milltown Malbay, Ennis, Co. Clare, Ireland"
804,Roadside Tavern,53.028258,-9.290828,"17 Rooska, Rathbaun, Lisdoonvarna, Co. Clare, V95 X5Y6, Ireland"
807,Five Arches,52.79818,-8.834349999999999,"Knopoge, Knappogue, Co. Clare, Ireland"
809,Patrick's Bar,52.84259669999999,-8.9852344,"6-8 Market Pl, Clonroad Beg, Ennis, Co. Clare, Ireland"
811,Hyland Burren Hotel,53.11526910000001,-9.149296399999999,"Main Street, Ballyvaughan, Co. Clare, H91 EY00, Ireland"
813,Johnsons Bar,52.6382616,-9.4845258,"Henry St, Kilrush, Co. Clare, Ireland"
814,Clarkes,52.8474255,-8.988738399999999,"Ennis, Co. Clare, Ireland"
818,The Shibeen,53.2356707,-8.8718203,"Clarinbridge Business Park, Kilcornan, Clarinbridge, Co. Galway, Ireland"
819,Gleeson's Bar,52.807334,-8.7461685,"Main St, Clonlea, Kilkishen, Co. Clare, Ireland"
827,Linnanes Lobster Bar,53.155832,-9.075599,"Cartron, New Quay, Co. Clare, Ireland"
829,Haven Arms,52.6385137,-9.4847068,"Henry St, Drimna, Kilrush, Co. Clare, Ireland"
834,The Ritz,53.0293195,-9.2891726,"The Ritz Hotel The Sq, Lisdoonvarna, Co. IE, Ireland"
836,Danny Mac's Café Bar,52.9325631,-9.3462958,"Main St, Dough, Lahinch, Co. Clare, Ireland"
838,The Market,52.8437165,-8.9841911,"3 Merchants Square, Clonroad Beg, Ennis, Co. Clare, Ireland"
841,Marrinans Bar,52.8556831,-9.4007556,"Main St, Leagard North, Miltown Malbay, Co. Clare, Ireland"
842,Drumgeely Public House And Off Licence Limited,52.70090829999999,-8.8991533,"Drumgeely, Co. Clare, Ireland"
846,Kenny's Bar,52.9317204,-9.345985599999999,"Main St, Dough, Lahinch, Co. Clare, Ireland"
849,The Spancilhill Inn,52.83132699999999,-8.980353,"Limerick Rd, Clonroad More, Ennis, Co. Clare, Ireland"
850,Scott's Bar,52.6793513,-9.6478462,"O'Curry St, Dough, Kilrush, Co. Clare, Ireland"
854,The Crabtree,52.7665532,-8.8611024,"Ballycar, Newmarket on Fergus, Co. Clare, Ireland"
858,Flanagan's Bar,52.932861,-9.34621,"Main St, Dough, Lahinch, Co. Clare, Ireland"
860,Myles Creek Bar & Restaurant,52.678209,-9.64911,"O'Curry St, Dough, Kilkee, Co. Clare, Ireland"
869,Johnno's Ale House,52.8386763,-8.9605269,"R469, Bunnow, Ennis, Co. Clare, Ireland"
872,O'neills Public House,52.7610088,-8.896421499999999,"4 Ennis Rd, Newmarket, Newmarket on Fergus, Co. Clare, V95 T8P8, Ireland"
873,Cois Na Habhna,52.865498,-8.9806525,"Galway Road, Ballycorey, Ennis, Co. Clare, Ireland"
883,The Fiddle Head,52.7223822,-9.319845800000001,"Kilmihil, Co. Clare, Ireland"
886,The Corner Bar,52.6734372,-9.107864,"Killadysart,, Kildysart, Co. Clare, Ireland"
887,Lame Duck,52.6838215,-8.5816536,"Gilloge, Co. Clare, Ireland"
888,Egan's Pub,52.938493,-9.391803099999999,"14 Main St, Liscannor, Co. Clare, Ireland"
889,Murty Browne's,52.6920985,-9.3479406,"Lissanair, Co. Clare, Ireland"
891,Donnellon's Bar,52.807334,-8.7461685,"Main St, Clonlea, Kilkishen, Co. Clare, Ireland"
897,Daly's Corcomroe Bar,53.1202548,-9.0710455,"Abbey West, Co. Clare, Ireland"
901,The Cloister Bar And Restaurant,52.84623449999999,-8.9817692,"Abbey St, Clonroad Beg, Ennis, Co. Clare, Ireland"
902,Gilly's,52.7418993,-8.7742975,"17 Church St, Sixmilebridge, Co. Clare, V95 F5P9, Ireland"
911,The Grove,52.856578999999996,-8.9592859,"Roslevan Shopping Centre, Tulla Rd, Rosslevan, Ennis, Co. Clare, Ireland"
915,The Weavers Inn,52.76060289999999,-8.8850906,"Weaver's Lodge, Ballycar Rd, Newmarket, Newmarket on Fergus, Co. Clare, Ireland"
917,Mitchell's Bar,52.6734372,-9.107864,"Killadysart,, Kildysart, Co. Clare, Ireland"
923,The Shamrock Inn,52.9322757,-9.3458998,"Main St, Dough, Lahinch, Co. Clare, Ireland"
924,Wild Honey Inn,53.028476,-9.295848999999999,"Kincora Rd, Rathbaun, Lisdoonvarna, Co. Clare, Ireland"
928,The Marine Hotel,52.6773941,-9.649711199999999,"1 Circular Rd, Dough, Kilkee, Co. Clare, V15 XW42, Ireland"
930,Dan O'connell,52.84462449999999,-8.9827546,"2 Abbey St, Clonroad Beg, Ennis, Co. Clare, Ireland"
932,Bayview,52.679773,-9.646678,"O'Connell St, Dough, Kilkee, Co. Clare, Ireland"
950,Ashburton Bar,51.903261,-8.476241,"Church St, Shandon, Cork, Ireland"
951,Planet Entertainment Centre,51.9208118,-8.4796164,"The Planet, Old Mallow Road, Cork, Ireland"
952,Bar Bk2 And Bucknuti,51.930103,-8.394867699999999,"Crestfield Centre, Riverstown, Glanmire, Co. Cork, Ireland"
957,The Sibin Bar,51.49468299999999,-9.350755,"Baltimore, Co. Cork, Ireland"
960,The Big Tree,52.086755,-8.1519852,"Conna, Mallow, Co. Cork, Ireland"
962,City Limits Nightclub,51.9018756,-8.4708513,"16 Coburg St, Centre, Cork, Ireland"
967,The Poachers Inn,51.739425,-8.745156999999999,"Clonakilty Rd, Gully, Bandon, Co. Cork, Ireland"
968,The Wagon Tavern,52.1360366,-8.2812211,"28 Cork Rd, Duntahane, Fermoy, Co. Cork, Ireland"
969,Carry Out Blackpool,51.9077742,-8.4744032,"Watercourse Rd, Blackpool, Cork, Ireland"
972,Bodega Night,51.899475,-8.47667,"44-45 Cornmarket St, Centre, Cork, T12 W27H, Ireland"
973,Briar Rose Bar,51.8835445,-8.446952099999999,"Ardfallen Lodge, Douglas Rd, Ballinlough, Cork, Ireland"
975,An Bodhran,51.89759069999999,-8.472010299999999,"42 Oliver Plunkett St, Centre, Cork, Co. Cork, Ireland"
977,The Welcome Inn,52.2336441,-8.670229899999999,"Main St, Buttevant, Co. Cork, Ireland"
979,T J Goodtyme,52.1376928,-8.277004699999999,"31 McCurtain St, Fermoy, Co. Cork, Ireland"
980,O'shea's Bar Waterfall,51.85438,-8.554499999999999,"Ballymah, Waterfall, Co. Cork, Ireland"
981,Crane Lane Theatre,51.8977258,-8.4695839,"Phoenix St, Centre, Cork, Ireland"
982,The Arches Bar,51.9877566,-8.4771947,"College Rd, Carrignavar, Co. Cork, Ireland"
985,Scannells,51.6219567,-8.888795499999999,"5 Connolly Street, Maulnaskehy, Clonakilty, Co. Cork, Ireland"
988,O' Donoghue's,51.9284278,-8.3908611,"Old Ct, Riverstown, Glanmire, Co. Cork, Ireland"
989,The Rob Roy,51.897411,-8.471779999999999,"28 Cook St, Centre, Cork, Ireland"
992,O'shea's Tavern,51.6502549,-9.9113764,"The Square, Cametringane, Co. Cork, Ireland"
994,Fitzgeralds Vienna Woods Hotel,51.9117729,-8.4029528,"Glanmire Wood, Dunkettle, Glanmire, Co. Cork, Ireland"
997,The Roaring Donkey Bar,51.853766,-8.295509,"Tiknock, Cobh, Co. Cork, Ireland"
999,The Snug,51.6803999,-9.4548242,"The Quay, Town Lots, Bantry, Co. Cork, Ireland"
1000,Granvilles Bar And Grill,51.905401499999996,-8.9619185,"Castle St, Maghereen, Macroom, Co. Cork, Ireland"
1001,The Galley,51.680347,-9.453994,"Wolfe Tone Square, Town Lots, Bantry, Co. Cork, P75 PC96, Ireland"
1003,The Thady Inn,51.8593866,-8.8000999,"Farnanes, Crookstown, Co. Cork, Ireland"
1004,Finders Inn,51.722271,-8.4024684,"L3215, Nohoval, Co. Cork, Ireland"
1005,Kelly's Bar,51.8499759,-8.295533299999999,"19 Casement Square, Kilgarvan, Cobh, Co. Cork, Ireland"
1006,The Tower Bar,51.9050934,-8.4769434,"44 Gerald Griffin St, Blackpool, Cork, Ireland"
1010,O'keeffes Bar,52.1361219,-8.642661,"127 Main St, Mallow, Co. Cork, P51 PH21, Ireland"
1012,Crowley's Bar,51.87924899999999,-9.5834421,"26 Henry St, Kenmare, Co. Kerry, Ireland"
1013,Bru Bar And Hostel,51.9014474,-8.4659206,"57 MacCurtain Street, Montenotte, Cork, Ireland"
1015,The Black Rock Inn,51.8864174,-8.419183799999999,"Clover Hill Ln, Mahon, Cork, Ireland"
1019,Bushe's Bar,51.4832698,-9.3730022,"The Square, Baltimore, Co. Cork, Ireland"
1020,O'riordans,52.17307520000001,-8.9031674,"Bluepool Lower, Bluepool, Kanturk, Co. Cork, Ireland"
1021,'donoghues,51.65151770000001,-9.9099332,"Corner House, The Square, Cametringane, Castletown-Bearhaven, Co. Cork, P75 FF83, Ireland"
1022,Smileys,51.878305,-8.485908000000002,"Vicars Rd, Togher, Cork, Ireland"
1024,The Courthouse Tavern,51.8980595,-8.4782656,"Cross St, Centre, Cork, Co. Cork, Ireland"
1025,Top Of The Hill,51.9044758,-8.4890832,"Gurranebraher Rd, Cork, Ireland"
1028,An Tigin,51.8249825,-10.17202,"Main Street, Waterville Medical Centre, Co. Kerry, Ireland"
1029,The Gallery Bar,52.1355116,-8.6399166,"Castlelands, St Joseph's Rd, Castlelands, Mallow, Co. Cork, Ireland"
1030,The Shamrock Bar,52.17967609999999,-9.1679296,"Kishkeam, Kishkeam Lower, Mallow, Co. Cork, Ireland"
1032,The Washington Inn,51.8965885,-8.482362499999999,"Lancaster Quay, Western Road, The Lough, Cork, T12 EF10, Ireland"
1033,Bishopstown Bar,51.879711,-8.517112000000001,"Bishopstown Rd, Looneys Cross, Cork, Ireland"
1039,Tarrants - The Bridge Bar,52.06013180000001,-9.0647121,"Millstreet, Drominahilla, Millstreet, Co. Cork, Ireland"
1043,The Drimoleague Inn,51.6597267,-9.2615123,"Main St, Baurnahulla, Drimoleague, Co. Cork, Ireland"
1045,The Quays Bar And Restaurant,51.849083,-8.297495699999999,"Westbourne Pl, Kilgarvan, Cobh, Co. Cork, Ireland"
1047,The Fastnet Inn,51.6347412,-8.709681699999999,"Main Street, Hamilton's Row, Co. Cork, Ireland"
1051,Cogans Bar,51.8140649,-8.3923604,"Carrigaline Middle, Carrigaline, Co. Cork, Ireland"
1055,The Cotton Ball,51.913455,-8.433183000000001,"18 Old Youghal Rd, Mayfield, Cork, T23 AE78, Ireland"
1056,Preachers,51.8975439,-8.477702299999999,"21 Washington St, Centre, Cork, Ireland"
1057,Havana Browns And Reardons,51.897308699999996,-8.4777056,"5 Hanover St, Centre, Cork, T12 RYP9, Ireland"
1059,Friars Walk Tavern,51.8909983,-8.474712499999999,"10 Friars Walk, Ballyphehane, Cork, Ireland"
1061,The Quays,51.6802374,-9.4571462,"The Quay, Kinathfineen, Bantry, Co. Cork, P75 WF34, Ireland"
1067,The Brick Oven,51.6803246,-9.454937,"The Quay, Town Lots, Cork, Ireland"
1069,Soho Bar,51.89767399999999,-8.475458,"77 Grand Parade, Centre, Cork, T12 NF70, Ireland"
1070,Galvins Carry Out,51.8920317,-8.484088999999999,"37 Bandon Rd, The Lough, Cork, Ireland"
1075,The Sandpit House,52.1262027,-8.9883984,"Dromagh National School, Mallow, Dromagh, Co. Cork, Ireland"
1076,The Old Log Cabin,51.99383539999999,-8.5796571,"Kilmona, Co. Cork, Ireland"
1083,Murphy's Bar,52.1590425,-9.065982499999999,"16 Main St, Laharan West, Boherbue, Co. Cork, Ireland"
1087,The Stables,51.8121325,-8.392810299999999,"Main St, Carrigaline Middle, Carrigaline, Co. Cork, Ireland"
1088,Frankfield House,51.8701304,-8.4664302,"Frankfield, Cork, Ireland"
1089,Sin E,51.901699,-8.47109,"8 Coburg St, Shandon, Cork, Ireland"
1091,The Oval Bar,51.896734,-8.476735,"25 S Main St, Centre, Cork, T12 Y15D, Ireland"
1092,Dewdrop Inn,51.909470999999996,-8.788960099999999,"Glebe, Coachford, Co. Cork, Ireland"
1094,The Hole In Wall Bar And The Forge Night Club,51.8532371,-8.7323798,"The Forge, Aherla, Co. Cork, Ireland"
1097,The Welcome Inn,51.8984789,-8.467540699999999,"24 Parnell Pl, Centre, Cork, T12 HV2X, Ireland"
1098,Lil Mccarthy's Bar,51.528295,-9.1748961,"Main Street, Castletownsend, Co. Cork, Ireland"
1099,The Fields Bar,51.7273569,-8.5890676,"Dunderrow, Kinsale, Co. Cork, Ireland"
1100,Murphy's,52.1358714,-8.6419676,"72 Main St, Castlelands, Mallow, Co. Cork, Ireland"
1102,The Roundy House,52.1441838,-8.3977801,"Ballyhooly, Killathy, Ballyhooly, Co. Cork, Ireland"
1103,The Mills Inn,51.9049606,-8.9600296,"Ballyvourney, Maghereen, Macroom, Co. Cork, Ireland"
1104,Chambers,51.897481,-8.4789254,"Washington St, Centre, Cork, Co. Cork, Ireland"
1108,The Nook,51.9560543,-7.850907500000001,"20 N Main St, Youghal-Lands, Youghal, Co. Cork, Ireland"
1109,Eugene's Bar,51.9030293,-8.4781212,"33 Shandon St, Shandon, Cork, Ireland"
1111,Wm Sheehan,52.1359629,-8.642093299999999,"71 Main St
Mallow
Co. Cork
P51 XN28 Main St, Mallow, Co. Cork, P51 XN28, Ireland"
1112,Jack Spratt,51.9095264,-8.2608514,"12 Main St, Carrigtohill, Co. Cork, T45 TW93, Ireland"
1118,Grey Hound Bar,51.7064268,-8.5239896,"Market Square, Sleveen, Kinsale, Co. Cork, Ireland"
1122,Healys Bar,51.8886263,-8.584319100000002,"Ballincollig, Co. Cork, Ireland"
1124,Fairfield Tavern,51.9148892,-8.485500499999999,"96 Knockpogue Ave, Farranree, Cork, Co. Cork, Ireland"
1125,The Crossbarry Inn,51.8020473,-8.6453657,"Killeen, Cross Barry, Co. Cork, Ireland"
1126,The Olympic Tavern,51.735686,-8.950401399999999,"Main St, Derrigra, Co. Cork, Ireland"
1127,The Horse Shoe Inn,51.8849903,-8.4671981,"10 Curragh Rd, Turners Cross, Cork, T12 WK19, Ireland"
1132,The Lake Hotel,51.8421911,-9.1267177,"Inchigeelagh, Co. Cork, Ireland"
1133,Charlies Bar,51.8970172,-8.466693099999999,"2 Union Quay, Centre, Cork, T12 A376, Ireland"
1135,Albert Lynch,52.1378037,-8.642053599999999,"19 William O'Brien St, Mallow, Co. Cork, Ireland"
1137,O'farrells Bar,51.9397623,-7.866202599999999,"Summerfield, Youghal, Co. Cork, Ireland"
1141,D.o' Donovan,52.13828700000001,-8.276742,"2, Waterside, Ashe Quay, Rath-Healy, Fermoy, Co. Cork, Ireland"
1142,Miko's Bar,52.2666465,-8.270685,"5 New Square, Ballinwillin, Mitchelstown, Co. Cork, P67 CX38, Ireland"
1144,Boatman's Inn,51.5581525,-9.14091,"2-44 Main St, Clontaff, Unionhall, Co. Cork, Ireland"
1146,The Brewery Bar,51.8982219,-8.4695883,"116 Oliver Plunkett St, Centre, Cork, T12 P957, Ireland"
1147,The Avenue Bar,51.9001805,-8.4890151,"145 Sunday's Well Rd, Sunday's Well, Cork, Ireland"
1148,An Teach Beag,51.9148852,-8.171381199999999,"Connolly St, Midleton, Co. Cork, Ireland"
1149,The Great Escape,51.902143,-8.4712705,"33 Leitrim St, Shandon, Cork, T23 K751, Ireland"
1150,Fairfield Bar,51.5492309,-9.2689492,"60 Bridge St, Marsh, Skibbereen, Co. Cork, P81 XY44 Bridge St, Marsh, Skibbereen, Co. Cork, P81 XY44, Ireland"
1151,O'briens Bar,52.27119039999999,-8.7311037,"5 Kerry Ln, Churchtown, Co. Cork, Ireland"
1152,The Southern Star,51.8905781,-8.4631577,"Southern Rd, Ballintemple, Cork, Ireland"
1153,The Railway Bar,52.0881662,-8.6377711,"Mourne Abbey, Mallow, Co. Cork, Ireland"
1154,The Bell Inn,51.9248611,-9.004532099999999,"Clondrohid, Ardnacrushy, Macroom, Co. Cork, Ireland"
1155,Nyhan's Bar,51.7450115,-8.733089699999999,"12 Oliver Plunkett St, Cloghmacsimon, Bandon, Co. Cork, Ireland"
1157,Ollie's Bar,52.2461303,-8.4260413,"Main St, Kildorrery, Co. Cork, Ireland"
1159,Barretts Of Innishannon,51.7650076,-8.6584159,"Main St, Laherfineen, Innishannon, Co. Cork, Ireland"
1161,The Brown Pub,51.68014909999999,-9.4506598,"The Brown Pub, Bantry, Co. Cork, Ireland"
1162,The Loft Bar,51.6798492,-9.4498123,"Barrack St, Town Lots, Bantry, Co. Cork, Ireland"
1163,The Local,52.1860095,-8.3564809,"Main St, Glanworth, Co. Cork, Ireland"
1166,Murphys Rock,51.92322720000001,-8.4584481,"Ballincollie Rd, Ballincolly, Cork, Ireland"
1167,Rathcormac Inn,52.07385499999999,-8.2828784,"Knocknabooly, Co. Cork, Ireland"
1170,James J. Crowley,51.6800803,-9.452576299999999,"Bantry, Co. Cork, Ireland"
1172,Josie's,51.9835614,-8.712987199999999,"Fornaght, Garraun, Co. Cork, Ireland"
1178,The Two Mile Inn,51.9154516,-8.1237736,"Churchtown North, Midleton, Co. Cork, Ireland"
1179,Ryan's,51.8991926,-8.477773899999999,"43 N Main St, Centre, Cork, T12 CKP8, Ireland"
1191,Geaneys Bar,51.9147793,-8.469842,"2 Dublin St, Blackpool, Cork, T23 DY73, Ireland"
1193,Jack Doyles Bar,51.8529309,-8.294880700000002,"18 Midleton St, Kilgarvan, Cobh, Co. Cork, Ireland"
1195,Ovens Bar,51.8803202,-8.6557862,"Ovens, Ballincollig, Co. IE, Ireland"
1200,The Bulman Bar And Toddies Restaurant,51.7002201,-8.499908999999999,"The Bulman Bar, Summercove, Kinsale, Co. Cork, Ireland"
1201,Ryans Bar,51.8504947,-8.2949475,"Casement Square, Kilgarvan, Cobh, Co. Cork, Ireland"
1202,Reenascreena Ale House/o'driscolls Bar,51.62592979999999,-9.055631199999999,"Reenascreena Cross,West, Co. Cork, Ireland"
1203,The Quay's Bar,51.9527053,-7.8451574,"Nelson Quay, Youghal-Lands, Youghal, Co. Cork, Ireland"
1210,Maureen's,52.136451,-8.642710000000001,"29/30 William O'Brien St, Mallow, Co. Cork, Ireland"
1212,Barrys Pub,51.9893714,-8.743396599999999,"Lackabane, Donoughmore, Co. Cork, Ireland"
1213,J. D's Pub (doyles),51.9525994,-7.8467914,"2 S Main St, Youghal-Lands, Youghal, Co. Cork, Ireland"
1214,The Long Point Bar,51.82699789999999,-8.231577099999999,"3-, 5 Mosestown Grove, Mosestown, Whitegate, Co. Cork, Ireland"
1215,The Brook Inn,51.9384181,-8.3988976,"Sallybrook, Riverstown, Glanmire, Co. Cork, Ireland"
1218,The Thatched Inn,51.8982492,-8.043781599999999,"Lady's Bridge, Ladysbridge, Co. Cork, Ireland"
1224,The Four Winds,52.353177,-8.681358,"Main St, Rathgoggan Middle, Charleville, Co. Cork, Ireland"
1229,Henry Ford Tavern,51.67023510000001,-8.8570692,"Madame, Ballinascarty, Co. Cork, Ireland"
1230,Bobs Foxes,51.8972987,-8.4792503,"3 Hanover Pl, Centre, Cork, T12 FN34, Ireland"
1231,The Point Bar,51.9576758,-7.8525345999999985,"2 Tallow St, Greencloyne, Youghal, Co. Cork, P36 NC80, Ireland"
1236,The Shelbourne Bar,51.901436,-8.468540899999999,"17 MacCurtain Street, Centre, Cork, Co. Cork, T23 DE79, Ireland"
1239,Wallis Arms Hotel,52.0603432,-9.061223799999999,"The Square, Millstreet, Co. Cork, P51 D25W, Ireland"
1240,Horgans Bar,51.93315,-8.5675972,"10 The Square, Monacnapa, Blarney, Co. Cork, T23 CV96, Ireland"
1243,The Coal Quay,51.8997839,-8.4769258,"Cornmarket Street,, Centre, Co. Cork, Ireland"
1244,Market Lane,51.898388,-8.468105999999999,"5-6 Oliver Plunkett St, Centre, Cork, T12 T959, Ireland"
1253,Sullivans Bar,51.46937459999999,-9.724507,"1-4 Rock Street, Crookhaven, Co. Cork, Ireland"
1258,J Daly,51.8979095,-8.4700199,"Pembroke House, Pembroke St, Centre, Cork, Ireland"
1260,Denny O'meara,51.49502950000001,-9.7109931,"R591, Goleen, Co. Cork, Ireland"
1261,The Abbey Tavern,51.89387079999999,-8.482881299999999,"54 Gillabbey St, The Lough, Cork, Ireland"
1262,The Oak Bar,51.6414412,-10.0441263,"Cloan, Co. Cork, Ireland"
1263,O'shea's Bar,51.6935113,-9.9575064,"Eyeries, Co. Cork, Ireland"
1265,O'donovan's,51.62303,-8.8899403,"Pearse St, Scartagh, Clonakilty, Co. Cork, Ireland"
1266,Murray's Bar,51.90420760000001,-8.954052599999999,"Railway View Railway View, Sleveen East, Macroom, Co. Cork, Ireland"
1268,The Abbey Bar,52.0889675,-8.2341423,"2 Main St, Mohera, Castlelyons, Co. Cork, P61 N840, Ireland"
1271,The Anglers Rest,54.1164199,-7.5838494,"Bridge St, Doon, Co. Cavan, Ireland"
1275,Arundel's,51.60004929999999,-9.632416,"Kitchen Cove, Ahakista, Co. Cork, Ireland"
1277,The Clubhouse,51.7222571,-9.1118088,"Dunmanway North, Dunmanway, Co. Cork, Ireland"
1279,Dowlings Caravan And Camping Park,51.7361891,-9.5608079,"Glengarriff Caravan & Camping Park, Castletownbeare Road, Glengarriff, Co. Cork, Ireland"
1282,O'c Bar,52.1770056,-8.9068329,"15 Percival St, Kanturk, Co. Cork, Ireland"
1287,Callanan,51.895432,-8.4723016,"George's, 24 George's Quay, Cork, Ireland"
1288,The Local,51.9064221,-8.4621812,"18 Military Rd, Montenotte, Cork, Ireland"
1290,Tigh Ui Laoghaire,51.93142599999999,-8.8590234,"Bealnamorrive, Co. Cork, Ireland"
1292,Fiddlers,51.74929789999999,-8.7404967,"1-, 2 Convent Hill, Bandon, Co. Cork, Ireland"
1293,Seano's,43.8340437,11.0245138,"Seano PO, Italy"
1294,The Pier House,51.6351092,-8.7103348,"Courtmacsherry Pier, Cullenagh, Courtmacsherry, Co. Cork, Ireland"
1297,The Ballynoe Inn,51.8574456,-8.318050399999999,"Rushbrook Centre, Rushbrook Links, Cobh, Co. Cork, Ireland"
1298,The Cross Roads Bar,52.2403537,-8.702601399999999,"Breagoge Cross, Buttevant, Co. Cork, Ireland"
1299,Cahalanes,51.5496068,-9.2696091,"20 Bridge St, Marsh, Skibbereen, Co. Cork, Ireland"
1300,Ronnie's Bar,52.1771967,-8.905437899999999,"Main St, Kanturk, Co. Cork, Ireland"
1301,The Spaniard Inn,51.7050153,-8.5168716,"Scilly, Kinsale, Co. Cork, Ireland"
1302,First And Last,51.7212889,-9.1168778,"Castle St, Dunmanway North, Dunmanway, Co. Cork, Ireland"
1305,The Thatch Bar,51.9729817,-8.2169683,"Lisgoold, Oldcourt West, Leamlara, Co. Cork, Ireland"
1306,Sheehans Bar,52.12274,-9.207602999999999,"Church View, Park, Knocknagree, Co. Cork, Ireland"
1308,Courtmacsherry Hotel,51.6332664,-8.6997118,"Courtmacsherry, Bandon, Co. Cork, Ireland"
1312,Cilleanna Bar,51.8076189,-9.089848400000001,"Johnstown House, Johnstown, Macroom, Co. Cork, Ireland"
1315,The Bridge House,51.738653,-9.415243,"Pearson's Bridge, Ballylickey, Bantry, Co. Cork, Ireland"
1316,The High Chapperal Bar,51.8503357,-8.294285799999999,"Cobh, Co. Cork, Ireland"
1318,The Railway Inn,51.92055939999999,-8.177626799999999,"58 Mill Rd, Townparks, Midleton, Co. Cork, Ireland"
1319,Corkery's Bar,52.0605118,-9.0640491,"W End, Drominahilla, Millstreet, Co. Cork, Ireland"
1320,The Spa Bar,51.87370989999999,-8.4203163,"Maryborough Hill, Douglas, Co. Cork, Ireland"
1321,Cottrels Bar,52.2161886,-9.000155699999999,"Scarteen St, Newmarket, Co. Cork, Ireland"
1322,The Bridge Inn,51.9065351,-8.9803187,"2 Sullane Weirs, Gurteenroe, Macroom, Co. Cork, P12 YY13, Ireland"
1324,The Inniscarra Bar,51.8925955,-8.6235343,"Great Island, Co. Cork, Ireland"
1325,O'briens Bar,51.5626547,-9.460326,"Levis Corner House Main St, Ballydehob, Co. Cork, Ireland"
1326,Thomos Bar,52.2167349,-8.5850026,"Main St, Demesne, Doneraile, Co. Cork, Ireland"
1329,The Harbour Bar,51.817905,-8.3914957,"Carrigaline, Co. Cork, Ireland"
1335,Hartys Bar,51.862433,-8.1200751,"Church St, Malapardas, Cloyne, Co. Cork, Ireland"
1339,Castlemore Arms,51.8595974,-8.7997856,"Ryecourt, Co. Cork, Ireland"
1340,Burkes Bar,52.2333927,-8.6699275,"Main St, Buttevant, Co. Cork, Ireland"
1343,Breda's Bar,51.9145147,-8.470105,"5 Dublin St, Blackpool, Cork, Co. Cork, Ireland"
1344,The Pike Bar,51.6007111,-8.9589866,"Lisavaird National School, Creagh Beg, Clonakilty, Co. Cork, Ireland"
1345,Cottage Bar And Restaurant,51.7500277,-9.5522224,"Glengarriff, Monteensudder, Glengarriff, Co. Cork, Ireland"
1347,Kierans Folk House And Bacchus Brasserie,51.7056866,-8.5244115,"Guardwell, Sleveen, cork, P17WD92, Ireland"
1349,The Ash Tree,51.7334665,-8.7586368,"Old Chapel, Roundhill, Bandon, Co. Cork, Ireland"
1350,Dinty's,51.55787669999999,-9.1418936,"Main St, Clontaff, Skibbereen, Co. Cork, Ireland"
1355,Relihans Bar,52.2717538,-9.6805379,"Clash East, Tralee, Co. Kerry, Ireland"
1358,The Laine Bar,51.9048039,-8.9588478,"Sleveen East, Macroom, Co. Cork, Ireland"
1363,The Huntsman Bar,51.92518829999999,-8.6085122,"Kilnamucky, Tower, Co. Cork, Ireland"
1364,Larry Thompkins Bar,51.900215,-8.471375,"8 Lavitt's Quay, Centre, Cork, Ireland"
1366,The Inn By The Harbour,51.826865,-8.00178,"Inn by the Harbour, Ballycotton, Co. Cork, P25 FY94, Ireland"
1369,Wallis Town Hall,51.9135596,-8.172433,"74 Main St, Midleton, Co. Cork, P25 YT21, Ireland"
1370,The Winning Post,51.6203379,-8.905510399999999,"Clonakilty, Co. Cork, Ireland"
1371,Waxy's,51.8979441,-8.4727557,"2 Marlboro St, Centre, Cork, Ireland"
1372,The Anchor Bar,51.9553683,-7.8483598,"5 O'Neill Crowley Street, Youghal-Lands, Youghal, Co. Cork, P36 HK35, Ireland"
1374,Hickeys Bar,52.1052532,-8.6902163,"Dromore, Dromahane, Co. Cork, Ireland"
1375,Supervalu,51.9049128,-8.9588973,"Main St, Sleveen East, Macroom, Co. Cork, Ireland"
1377,The Bunratty Inn,51.5270378,-9.5477847,"Main St, Meenvane, Schull, Co. Cork, Ireland"
1380,Baker Street Bar,51.9040172,-8.4964214,"5 Baker's Rd, Gurranabraher, Cork, Ireland"
1381,Corbett Court,52.31895919999999,-8.671399,"Castleharrison, Ballyhea, Charleville, Co. Cork, Ireland"
1382,Corbett Court,52.203675,-8.268609999999999,"Ballinrush, Fermoy, Co. Cork, Ireland"
1383,The Bridge Inn,51.9108518,-8.4744031,"87-91 Great William O'Brien St, Blackpool, Cork, T23 N4C2, Ireland"
1388,Waterfall Road,51.8758527,-8.5257384,"Waterfall Road, Bishopstown, Cork, Ireland"
1391,The Long Valley (bar),51.8982006,-8.4705684,"10 Winthrop St, Centre, Cork, T12 NW64, Ireland"
1392,Lawlors At The White Horse,51.8860737,-8.6075936,"West Village, Ballincollig, Co. Cork, Ireland"
1394,The Schooner Bar,51.82671759999999,-8.2312462,"New Road, Mosestown, Midleton, Co. Cork, Ireland"
1398,O'connell's Bar Charleville,52.3548613,-8.6835045,"69 Main St, Rathgoggan Middle, Charleville, Co. Cork, Ireland"
1400,Cork Racecourse,52.132177,-8.685995,"Killarney Road, Mallow, Co. Cork, Ireland"
1401,The Ardmanning House,51.8740923,-8.495836599999999,"Togher Rd, Lehenagh Beg, Togher, Co. Cork, Ireland"
1402,The Munster Arms Hotel,51.745213,-8.7337329,"Oliver Plunkett St, Cloghmacsimon, Bandon, Co. Cork, Ireland"
1403,Barry's Bar And Restaurant,51.8772296,-8.4361553,"Douglas Tavern, 35 East, Douglas St, Douglas, Coprk, Co. Cork, T12 YR8E, Ireland"
1404,Five Mile Inn,51.8169651,-8.4919879,"Five Mile Bridge Ballinhassig, Cork, T12 E4HP, Ireland"
1405,The Ensign Bar,51.84975439999999,-8.3315326,"7 De Vesci Pl, Ringacoltig, Monkstown, Co. Cork, T12 X37T, Ireland"
1410,The Olde Fiddle Pub,52.1352377,-8.6407024,"2 Spa Square, Castlelands, Mallow, Co. Cork, Ireland"
1411,The Village Inn,51.73675189999999,-8.9392286,"Main St, Derrigra, Enniskeane, Co. Cork, Ireland"
1412,An Crios,51.8901934,-9.0740231,"Kilnamartyra, Macroom, Ireland"
1416,Nadd Pub,52.1305809,-8.8950005,"Nadd, Banteer, Co. Cork, Ireland"
1417,Aunties,51.9245513,-8.606472499999999,"Tower Cross, Blarney, Co. Cork, Ireland"
1418,The Rebel Bar,52.2665496,-8.2712548,"10 New Square, Ballinwillin, Co.Cork, Co. Cork, P67 EC95, Ireland"
1419,The Cosy Cabin Bar,51.67975,-9.4499611,"12 Barrack St, Town Lots, Bantry, Co. Cork, P75 H429, Ireland"
1421,The Sportsmans Arms,51.8924221,-8.4830036,"141 Bandon Rd, The Lough, Cork, Co. Cork, T12 C971, Ireland"
1423,Henchy's,51.9046653,-8.457984,"40 Wellington Rd, St Luke's, Cork, Ireland"
1426,The Moorings,52.08942829999999,-7.616926399999999,"Davitts Quay, Abbeyside, Dungarvan, Co. Waterford, Ireland"
1427,O'briens Bar,51.62194960000001,-8.8891305,"20/, 21 Connolly Street, Clonakilty, Co. Cork, Ireland"
1432,The Maple Leaf,51.9159997,-8.1741961,"5 Main St, Midleton, Co. Cork, Ireland"
1438,Costigans Bar,51.897431,-8.480425,"11 Washington Street West, Centre, Cork, T12 N768, Ireland"
1440,The Red Store,51.9560683,-7.850540100000001,"150 N Main St, Youghal-Lands, Youghal, Co. Cork, P36 XH10, Ireland"
1441,"The Dock Bar, Castlepark",51.69648489999999,-8.5149451,"Castlepark, Kinsale, Co. Cork, Ireland"
1444,The Hub,51.8952521,-8.465686,"9 Anglesea St, Ballintemple, Cork, Co. Cork, Ireland"
1445,Market Tavern,51.89517250000001,-8.4654094,"10 Anglesea St, Ballintemple, Cork., Co. Cork, Ireland"
1446,Brass Monkey,51.8927705,-8.4685405,"12 Douglas St, Ballintemple, Cork, T12 NF77, Ireland"
1447,Roundabout Inn,52.1380743,-8.6561047,"Annabella Logde, Mallow, Co. Cork, Ireland"
1452,Levis's Bar,51.5626547,-9.460326,"Levis Corner House Main St, Ballydehob, Co. Cork, Ireland"
1457,Annie Mac's,51.89069809999999,-8.488110599999999,"27 Bandon Rd, Denroches Cross, Cork, Ireland"
1459,Counihans,51.89778039999999,-8.4699952,"3 Pembroke St, Centre, Cork, Ireland"
1461,The Silver Key And Il Primo,51.8875884,-8.433251,"Churchyard Ln, Ballinlough, Cork, Ireland"
1463,Hacketts Bar,51.526853,-9.5453116,"2-, 48 Main St, Meenvane, Schull, Co. Cork, Ireland"
1464,Cashmans Bar,51.6735577,-8.6917337,"Kilbrittain, Glanduff, Kilbrittain, Co. Cork, Ireland"
1468,The Tower Bar,51.8630423,-8.1208937,"Town Parks, Co. Cork, Ireland"
1475,Castle Hotel,51.90487,-8.958396,"Main St, Sleveen East, Macroom, Co. Cork, Ireland"
1476,Kirbys Korner,51.811925,-8.5309683,"Tullig More, Ballinhassig, Co. Cork, Ireland"
1477,Barry's Bar,51.8772296,-8.4361553,"Douglas Tavern, 35 East, Douglas St, Douglas, Coprk, Co. Cork, T12 YR8E, Ireland"
1480,Pomeroy's Clara Inn,52.0600154,-9.0606308,"Church St, Drominahilla, Millstreet, Co. Cork, Ireland"
1483,Dan Hourigans,52.2146001,-9.0001239,"New St, Newmarket, Co. Cork, Ireland"
1487,The Welcome Inn,51.7476248,-8.8300983,"Derrycoole, Ireland"
1488,O'driscoll's,51.7123364,-8.6276843,"Ballinadee Church of Ireland, Ballinadee, Bandon, Co. Cork, Ireland"
1492,Brooklands Bar,51.8982677,-8.166679499999999,"Castleredmond, Ballinacurra, Co. Cork, Ireland"
1494,The Rest Bar,51.9127574,-8.570591,"Ballycannon, Kerry Pike, Co. Cork, T23 ER04, Ireland"
1496,The Arches,52.1492053,-8.6359435,"The Arches, Spaglen, Mallow, Co. Cork, Ireland"
1497,Old Head Golf Links,51.60879389999999,-8.5348256,"Downmacpatrick, Kinsale, Co. Cork, Ireland"
1498,Ciaran Danny Mikes,51.5541625,-9.787248900000002,"Ballyieragh, Co. Cork, Ireland"
1499,Bernard Harrington,51.680043,-9.4523857,"Wolfe Tone Square, Town Lots, Bantry, Co. Cork, Ireland"
1500,Cotters Of Cape Clear,51.438748,-9.5048968,"Unnamed Road, Knockanacohig, Co., Cork, Ireland"
1504,Pad Joes,51.64378019999999,-8.7650858,"Abbey St, Castle Lower, Timoleague, Co. Cork, Ireland"
1511,The Rising Tide,51.91114,-8.336329899999999,"25 Cois Chuain, Johnstown, Glounthaune, Co. Cork, T45 AX06, Ireland"
1514,Sober Lane,51.8955577,-8.4728777,"5 Sullivan's Quay Centre, Cork, T12 H771 Sullivan's Quay, Centre, Cork, T12 H771, Ireland"
1520,Carrig House,51.987261,-8.4789493,"Ballycaskin, Carrignavar, Co. Cork, Ireland"
1527,O'riada's Nightclub,51.9048039,-8.9588478,"Sleveen East, Macroom, Co. Cork, Ireland"
1528,O' Donnell's,52.1367773,-8.643485199999999,"54 Main St, Mallow, Co. Cork, Ireland"
1531,Pat Buckley's Bar,51.90199680000001,-8.4741388,"14 Mulgrave Rd, Shandon, Cork, Ireland"
1539,The Model Farm,51.8901175,-8.5383789,"Model Farm Rd, Eden Hall, Cork, Ireland"
1542,The Bantry Inn,51.6797547,-9.449146800000001,"5 Main St, Town Lots, Bantry, Co. Cork, P75 YX56 Main St, Town Lots, Bantry, Co. Cork, P75 YX56, Ireland"
1544,Bantry Boston Bar,51.6787129,-9.4514392,"1 William St, Kinathfineen, Bantry, Co. Cork, Ireland"
1547,The Wilton Bar And Restaurant,51.8809621,-8.5103233,"Cardinal Way, Wilton, Cork, Ireland"
1552,The Russell Inn,52.0994644,-8.6894399,"Dromahane, Drommahane, Mallow, Co. Cork, Ireland"
1553,The Carrig Inn,51.9039835,-8.865187299999999,"Carrigadrohid, Co. Cork, Ireland"
1554,The Farriers,52.1372719,-8.281225599999999,"Fermoy, Co. Cork, Ireland"
1555,The Imokilly Tavern,51.9318788,-8.0567545,"Mogeely, Co. Cork, Ireland"
1556,Conway's Bar,52.13897619999999,-8.6539164,"Mallow, Co. Cork, Ireland"
1557,The Waterfront Bar,51.4830231,-9.373036599999999,"The Square, Baltimore, Co. Cork, Ireland"
1558,O'murchu's Bar,51.720871700000004,-9.1132517,"Bridge St Bridge St, Dunmanway North, Dunmanway, Co. Cork, P47 A278, Ireland"
1559,H M Grindel,52.1442364,-8.398137799999999,"Main St, Ballyhooly South, Co. Cork, Ireland"
1561,Pedlars Rock Bar,52.08872640000001,-8.2332431,"Main St, Mohera, Castlelyons, Co. Cork, Ireland"
1562,The Guileen Arms,51.7959833,-8.1955849,"Guileen,, Whitegate, Co. Cork, Ireland"
1564,The Castle Bar,51.70548549999999,-9.0304988,"Unnamed Road, Ballynacarriga, Co. Cork, Ireland"
1565,Lucey's Bar,51.6797824,-9.4512818,"10 New St, Town Lots, Bantry, Co. Cork, Ireland"
1566,Anchor Inn,51.8029494,-8.297364,"4 Middle Rd, Crosshaven, Co. Cork, Ireland"
1567,Horse And Hound,51.5484181,-9.2677941,"50-62 Townsend St, Marsh, Skibbereen, Co. Cork, Ireland"
1569,Charlie Madden's Bar,51.6433264,-8.7660594,"Mill Street, Castle Lower, Timoleague, Co. Cork, Ireland"
1570,The Four Winds,51.7372513,-8.931980099999999,"Ahiohill, Derrigra, Enniskeane, Co. Cork, Ireland"
1572,The Crookhaven Inn,51.468805,-9.7250535,"Crookhaven, Co. Cork, Ireland"
1573,"Maigneir, Main Street",52.1373944,-8.6459092,"Main St, Mallow, Co. Cork, Ireland"
1574,The Gaelic Bar,51.8129033,-8.3921271,"Carrigaline Rd, Carrigaline Middle, Carrigaline, Co. Cork, Ireland"
1576,Hally's Bar,51.9089459,-8.474878499999999,"Seamus Murphy Building, 32 Great William O'Brien St, Blackpool, Cork, Ireland"
1577,West Cork Hotel,51.5508418,-9.2707819,"Ilen St, Skibbereen, Co. Cork, Ireland"
1578,The Boothouse Bar,51.9514503,-8.430667699999999,"Ballinvriskig, Upper Glanmire, Co. Cork, Ireland"
1580,J. R. O'connors Public House,52.3549076,-8.6831774,"Rathgoggan Middle, Charleville, Co. Cork, Ireland"
1584,Shortens Bar,51.8504101,-9.2475355,"Dromanallig, Cahir, Co. Cork, Ireland"
1585,An Caipin,51.79537269999999,-8.9929556,"Cappeen West, Coppeen West, Co. Cork, Ireland"
1586,Murphys Bar,52.2890359,-9.144280799999999,"Lyraneag, Rockchapel, Co. Cork, Ireland"
1587,Creans Bar,52.1437703,-8.2767229,"Oliver Plunkett Hill, Rath-Healy, Fermoy, Co. Cork, Ireland"
1588,Fiddler's Green,51.6224796,-8.8862925,"Sandquay Mills, Clarke St, Scartagh, Clonakilty, Co. Cork, Ireland"
1589,North Gate Tavern,51.9014628,-8.4798594,"62 Shandon St, Sunday's Well, Cork, T23 X499, Ireland"
1593,Scotts Of Caroline Street,51.8981459,-8.469655999999999,"Oliver Plunkett St, Centre, Cork, Ireland"
1595,The Belle Vue Bar,51.9069258,-8.4611374,"175 Old Youghal Rd, Montenotte, Cork, Ireland"
1597,O'connells Of Glanmire,51.9177097,-8.3981691,"Dunkettle, Glanmire, Co. Cork, Ireland"
1598,The Criterion,51.869205,-8.3339082,"Docks St, Maulbaun, Passage West, Co. Cork, Ireland"
1602,Hurley's Bar,51.66646650000001,-8.5960343,"10 Main St, Ballinspittle, Co. Cork, Ireland"
1603,Water Rock Golf Course,51.9293951,-8.196744899999999,"Water Rock, Water-Rock, Midleton, Co. Cork, Ireland"
1605,The Sportsmans Bar,51.8536843,-8.7324595,"2 Orchard Meadow, Aherla More, Co. Cork, Ireland"
1610,The Stirrup Bar,51.9373929,-8.4514274,"Whites Cross, Upper Glanmire, Co. Cork, Ireland"
1611,The Temple Inn,51.9,-8.4333333,"Ballintemple, Cork, Ireland"
1613,The Courtyard Bar,51.6220229,-8.8877208,"Hartes Courtyard, Scartagh, Clonakilty, Co. Cork, Ireland"
1615,The Glenanaar Bar,52.2167349,-8.5850026,"Main St, Demesne, Doneraile, Co. Cork, Ireland"
1618,Old Halfway House,52.0179664,-8.589364999999999,"N20, Rathduff, Co. Cork, Ireland"
1620,The Brinny Inn,51.7898935,-8.7094458,"Ballinacurra House, Innishannon, Co. Cork, Ireland"
1621,Fine Wines,51.8973805,-8.4812286,"22 Washington St, Centre, Cork, Ireland"
1622,Mary O'connells Bar,51.8879118,-8.5894055,"8 Main St, Ballincollig, Co. Cork, Ireland"
1623,Hickeys Bar And Lounge,52.5189209,-8.717359499999999,"Bridge Street, Croom, Co. Limerick, Ireland"
1625,The Ramble Inn,51.80409179999999,-8.5705489,"Ballinhassig Garda Station, Ballyheedy, Ballinhassig, Co. Cork, Ireland"
1627,Brannigan's Bar,51.9884699,-8.764363099999999,"Co. Cork, Ireland"
1628,Bradleys Pub,51.8931087,-8.4789588,"Cork, T12 H285, 56 Barrack St, Ballyphehane, Cork, T12 H285, Ireland"
1629,Fitzgerald's Bar,52.136349,-8.594653600000001,"Ballymagooly, Co. Cork, Ireland"
1630,Sheahans Corner House,52.246235,-8.426995999999999,"Main St, Kildorrery, Co. Cork, Ireland"
1631,An Sibin,51.9482116,-8.6587854,"Tower Cross, Vicarstown, Blarney, Co. Cork, Ireland"
1633,O'sullivan's Bar,51.46937459999999,-9.724507,"1-4 Rock Street, Crookhaven, Co. Cork, Ireland"
1634,The Welcome Inn,51.468805,-9.7250535,"Crookhaven, Co. Cork, Ireland"
1635,Sea View Bar,51.6535139,-9.9063739,"Seaview Terrace, Knockaneroe, Castletown-Bearhaven, Co. Cork, Ireland"
1636,Captain Americas Cork,51.898245,-8.477181,"5 S Main St, Centre, Cork, T12 YKP6, Ireland"
1639,Fionnbarra's,51.8936331,-8.470936199999999,"73 Douglas St Centre Cork, T12 YW71 Douglas St, Centre, Cork, T12 YW71, Ireland"
1640,The Bush Bar,52.0604238,-9.0642072,"7 W End, Drominahilla, Co. Cork, Ireland"
1641,Brookfield Hotel,51.8902406,-8.5005732,"T12 DE0A, Brookfield, College Rd, Cork, Ireland"
1648,Kilmichael Bar,51.7450829,-8.7322051,"Oliver Plunkett St, Cloghmacsimon, Bandon, Co. Cork, Ireland"
1652,Bridge House Bar,52.1321454,-8.6410599,"Ballydaheen, Mallow, Co. Cork, Ireland"
1654,The Mountain Bar,51.888545,-8.4683738,"24 Evergreen Rd, Turners Cross, Cork, Co. Cork, T12 NH66, Ireland"
1658,The Harbour Bar,52.1866296,-8.3567368,"Rathdaggan, Glanworth, Co. Cork, Ireland"
1659,The Island Gate,51.9077122,-8.3642126,"Castleview, Glounthaune, Co. Cork, Ireland"
1660,J. Barry's Bar,51.8697107,-8.3342932,"Strand St, Maulbaun, Passage West, Co. Cork, Ireland"
1661,Lee Valley Golf And Country Club,51.890344999999996,-8.700614,"Mullaghroe, Clashanure, Ovens, Co. Cork, Ireland"
1663,The Wild Goose,52.114019,-8.661869,"Upper Quartertown, Mallow, Co. Cork, Ireland"
1664,The Alley Bar,52.1753383,-8.903847599999999,"Strand St, Bluepool, Kanturk, Co. Cork, Ireland"
1666,The Olde Rustic Bridge,52.267688,-8.2696312,"18A Lower Cork St, Ballinwillin, Mitchelstown, Co. Cork, Ireland"
1667,Phoenix Bar,51.8969774,-8.4667643,"3 Union Quay, Centre, Co. Cork, T12 XF24 Union Quay, Centre, Cork, T12 XF24, Ireland"
1669,Deep South,51.8963026,-8.4750415,"51 Grand Parade, Centre, Cork, Ireland"
1675,The Haven Bar,52.14690299999999,-8.5158499,"Monanimy Lower, Co. Cork, Ireland"
1676,J. C. Murphy,51.9045573,-8.959776699999999,"3 West Square, Sleveen East, Macroom, Co. Cork, P12 WV09, Ireland"
1677,Tides Bar And Restaurant,51.9407268,-7.8532843,"Upper Strand, Youghal, Co. Cork, Ireland"
1678,The Quality Hotel And Leisure Centre,51.925273,-7.873433999999999,"Redbarn, Youghal, Co. Cork, Ireland"
1680,The Beer Garden,51.8876601,-8.4670899,"10-12 Evergreen Rd, Turners Cross, Cork, Co. Cork, T12 KD00, Ireland"
1681,The Winners Enclosure,52.0927685,-8.108927399999999,"Conna, Co. Cork, Ireland"
1687,Dan Sheahan's Bar And Restaurant,51.8826602,-8.6785883,"Knockanemore, Srelane, Co. Cork, Ireland"
1690,Fox And Hounds,51.9170239,-8.446448499999999,"Ballyvolane Rd, Ballyvolane, Cork, Ireland"
1692,The Bull Mccabes Pub,51.8669662,-8.4801404,"Kinsale Road, Cork, Ireland"
1693,The Venue Bar,51.8953575,-8.4341741,"Blackrock Rd, Ballintemple, Cork, Ireland"
1700,Gearys Bar,52.3544984,-8.6829275,"Main St, Rathgoggan Middle, Charleville, Co. Cork, Ireland"
1701,The Cow Bar,51.9138357,-8.4323078,"Old Youghal Rd, Mayfield, Cork, Ireland"
1702,Hamlets Of Kinsale,51.7067261,-8.522981699999999,"The Glen, Sleveen, Kinsale, Co. Cork, Ireland"
1703,The Poor Relation,51.8982094,-8.467475,"19 Parnell Pl, Centre, Cork, Ireland"
1704,Murphs,51.8396925,-8.3502498,"Raffeen, Monkstown, Buncoille, Co. Cork, Ireland"
1705,The Farran Well,51.8733225,-8.720434299999999,"Farranavarra, Farran, Co. Cork, Ireland"
1708,Gallaghers Bar,51.9015735,-8.4699662,"32 MacCurtain Street, Montenotte, Cork, Ireland"
1709,Clancys Bar,51.940481,-7.845735100000001,"Front Strand, Williamstown, Youghal, Co. Cork, Ireland"
1713,The Junction Bar,52.13897619999999,-8.6539164,"Mallow, Co. Cork, Ireland"
1715,Canty's Bar,51.8976331,-8.469897399999999,"6 Pembroke St, Centre, Cork, Ireland"
1717,The Beehive Bar,51.596388,-9.092440999999999,"Beehive Bar, Connonagh, leap, Co. Cork, Ireland"
1719,The Anchor Bar,51.6797184,-9.451844699999999,"New St, Town Lots, Bantry, Co. Cork, Ireland"
1722,Molly's Bar,52.0471102,-8.7289488,"Bweeng Cross, Bweeng, Ireland"
1725,City Bounds,51.86935,-8.4951559,"Togher, Co. Cork, Ireland"
1726,The Diamond Bar,51.821707,-8.855573,"The Diamond Bar, Glannarouge East, Bealnablath, Co. Cork, Ireland"
1727,Kearneys Well,51.5502076,-9.265313599999999,"52 North St, Gortnaclohy, Skibbereen, Co. Cork, Ireland"
1728,Egans Bar Teach Mhic Aogain,52.13897619999999,-8.6539164,"Mallow, Co. Cork, Ireland"
1729,Red Cove Inn,51.8928473,-8.4036291,"1A Ave de Rennes, Mahon, Machain, Co. Cork, T12 KV6Y, Ireland"
1730,Maureen's Bar,52.2294424,-8.670599500000002,"Buttevant, Co. Cork, Ireland"
1732,The Ahakista Bar,51.60004929999999,-9.632416,"Kitchen Cove, Ahakista, Co. Cork, Ireland"
1733,Hodnett,51.6222718,-8.8912247,"1 Emmet Square, Maulnaskehy, Clonakilty, Co. Cork, Ireland"
1734,Mary Ann's Bar,51.91001,-8.96256,"Masseytown, Maghereen, Macroom, Co. Cork, Ireland"
1735,The Long Bar,52.1437703,-8.2767229,"Oliver Plunkett Hill, Rath-Healy, Fermoy, Co. Cork, Ireland"
1737,Phairs,51.6448659,-8.9004388,"Templebryan North, Co. Cork, Ireland"
1738,O'regans Bar,52.07625,-9.15203,"Rathduane, Rea, Co. Cork, Ireland"
1739,The Corner Bar,51.5500019,-9.2709142,"37 Bridge St, Marsh, Skibbereen, Co. Cork, Ireland"
1740,Sportsmans Rest,51.8117598,-8.5302676,"Tullig More, Ballinhassig, Co. Cork, Ireland"
1741,The Central Bar,52.1216599,-9.2084642,"R582, Knocknagree, Co. Cork, Ireland"
1743,T/a The Castle Inn,51.90487,-8.958396,"Main St, Sleveen East, Macroom, Co. Cork, Ireland"
1744,The Great O'neill,51.9118724,-8.331262400000002,"Johnstown, Glounthaune, Co. Cork, Ireland"
1747,The Pine Lodge,51.7824692,-8.2983017,"Ballinluska, Myrtleville, Co. Cork, Ireland"
1748,Bunnyconnellan Hotel,51.7808059,-8.2936447,"Coast Rd, Kilmichael East, Myrtleville, Co. Cork, Ireland"
1749,The Oar Bar,51.804255,-8.298250000000001,"1 lower road, Crosshaven, Co. Cork, Ireland"
1753,The Urhan Inn,51.6721344,-10.0008146,"R575, Aughabrack, Urhin, Co. Cork, Ireland"
1756,Ferry Arms,51.8663266,-8.3316939,"Ferry Point, The Dockyard, Co. Cork, Ireland"
1757,J. J. Coppinger's,51.9130182,-8.171496399999999,"55 Main St, Midleton, Co. Cork, Ireland"
1760,The Gerald Griffin,51.9078206,-8.4755005,"1 Gerald Griffin St Blackpool Cork T23 N224 Gerald Griffin St, Blackpool, Cork, T23 N224, Ireland"
1761,Bantry Bay Hotel,51.680347,-9.453994,"Wolfe Tone Square, Town Lots, Bantry, Co. Cork, P75 PC96, Ireland"
1762,The Huntsman Bar,51.736324,-8.483666,"19 Cramer's Cl, Ballindeenisk, Belgooly, Co. Cork, P17 KA40, Ireland"
1765,Kitty Mac's,51.6128323,-8.849607299999999,"Ring, Clonakilty, Co. Cork, Ireland"
1767,Admiral Drake Bar,51.8041636,-8.2978186,"Crosshaven, Co. Cork, Ireland"
1772,Springfort Hall Hotel,52.185036,-8.656597999999999,"Ferndale Cottage, 3 Mallow Rd, Twopothouse, Doneraile, Co. Cork, P51 FW98, Ireland"
1773,The Woodford Bar,,,
1775,The Lyre Bar,51.6743237,-8.931671,"R588, Knockskagh, Co. Cork, Ireland"
1776,The Elm Tree,51.9119986,-8.304397699999999,"Glounthaune, Co. IE, Ireland"
1777,The Bowery  Bar,51.896842600000014,-8.475976,"5-21 Tuckey St, Centre, Cork, Ireland"
1778,Mccarthy's Bar,52.2315258,-8.6700958,"Church View, Main St, Buttevant, Co. Cork, Ireland"
1780,The Gaelic Bar,51.90936240000001,-8.2607036,"29 Main St, Carrigtohill, Co. Cork, T45 NY09, Ireland"
1782,The Gallows,51.8926277,-8.4813385,"160 Bandon Rd, The Lough, Cork, T12 TH22, Ireland"
1785,The Old Imperial Hotel,51.9555221,-7.8501036,"27 N Main St, Youghal-Lands, Youghal, Co. Cork, Ireland"
1786,Celtic Twilight,51.93104719999999,-8.519701699999999,"Killeens, Rathpeacon, Co. Cork, Ireland"
1790,Kitty O'sé's,51.7064773,-8.5235042,"1 Pearse St, Sleveen, Kinsale, Co. Cork, P17 DR67, Ireland"
1792,The Commons Inn Hotel,51.92177,-8.48714,"New Mallow Road, Cork, T23 PY53, Ireland"
1795,Roisin Dubh,53.270204,-9.0581119,"9 Dominick Street Upper, Galway, Ireland"
1796,Wild Atlantic Bar,51.687315,-9.666824,"Trafrask, Beara Penninsula, Co. Cork, Ireland"
1797,The Three Horseshoes,51.909768,-8.450445,"290 Old Youghal Rd, Mayfield, Cork, Ireland"
1800,The Montenotte Hotel,51.904643,-8.452009,"Middle Glanmire Rd, Tivoli, Cork, Ireland"
1802,The Brogan Inn,51.748062,-8.739393999999999,"1 Kilbrogan Hill, Knockbrogan, Bandon, Co. Cork, P72 TN25, Ireland"
1803,Trade House Central,51.8882321,-8.593124099999999,"Ballincollig, Co. Cork, Ireland"
1805,Kerins Bar,52.1376362,-8.2750989,"11 Pearse Square, Fermoy, Co. Cork, Ireland"
1813,De Barra,51.6229317,-8.888982799999999,"55 Pearse St, Scartagh, Clonakilty, Co. Cork, Ireland"
1814,Deasys,51.6111477,-8.8517163,"Ahidelake, Co. Cork, Ireland"
1815,Ziggy's,51.896606,-8.4767777,"26 S Main St, Centre, Cork, Ireland"
1816,Litte Norah's,51.7467201,-8.736564699999999,"N Main St, Bandon, Co. Cork, Ireland"
1817,The White Country Inn,52.1297226,-8.8941441,"Banteer, Co. Cork, Ireland"
1820,Cissie Young's,51.8910571,-8.4879792,"80 Bandon Rd, The Lough, Cork, Ireland"
1827,Central Bar,52.2636432,-8.269995999999999,"28 Upper Cork St, Brigown, Mitchelstown, Co. Cork, Ireland"
1830,Clancy's Bar,52.1437032,-8.2763707,"Colmcille St, Rath-Healy, Fermoy, Co. Cork, Ireland"
1831,The Marina Bar,51.8981051,-8.4608566,"3 Victoria Rd, Ballintemple, Cork, T12 HA2F, Ireland"
1834,The Mousetrap,52.1415854,-8.6500334,"53 Beecher St, Mallow, Co. Cork, P51 EH04, Ireland"
1835,Scanlons Bar,53.4539746,-7.0983608,"Main St, Kinnegad, Co. Westmeath, Ireland"
1836,Grainnes Bar,51.6433264,-8.7660594,"Mill St, Castle Lower, Timoleague, Co. Cork, Ireland"
1841,John O'sullivans Public House,51.876126,-8.439698,"Church St, Douglas, Cork, Ireland"
1844,Jolly Rogers Tavern,51.478162,-9.402792999999999,"Farranacoush, Sherkin Island, Ireland"
1845,The Winery,51.62298699999999,-8.887687,"43 Ashe St, Scartagh, Clonakilty, Co. Cork, P85 KR50, Ireland"
1846,The Overdraught,51.761548,-8.391675,"Tracton GAA Club, Tubbrid, Cork, Ireland"
1852,White Rabbit Bar And Bbq,51.9013157,-8.4661628,"56 MacCurtain Street, Montenotte, Cork, Ireland"
1854,The Harp Bar,51.884972,-8.483271199999999,"108 Pouladuff Road, The Lough, Cork, Ireland"
1855,Weavers Bar,52.2675125,-8.270143299999999,"45 Lower Cork St, Ballinwillin, Mitchelstown, Co. Cork, Ireland"
1879,Fred Zeplins,51.89612169999999,-8.4727404,"8 Parliament St, Centre, Cork, T12 E299, Ireland"
1881,The Oldcourt Inn,51.5508418,-9.2707819,"Ilen St, Skibbereen, Co. Cork, Ireland"
1883,Mccarthys Bar,51.6517808,-9.9103076,"The Square, Knockaneroe, Castletown-Bearhaven, Co. Cork, Ireland"
1884,O'keefe's Supervalu,51.6813323,-9.4582245,"Harbour View, Reenrour, Bantry, Co. Cork, Ireland"
1887,O'mahonys Bar,51.7807687,-8.8673009,"Newcestown, Co. Cork, Ireland"
1890,The Village Inn,52.6653316,-8.609938,"39 Clare St, Limerick, Ireland"
1891,Tullagreine House,51.905474,-8.2821363,"Apartment 3, Tullagreine House, Tullagreen, Co. Cork, Ireland"
1896,The Hawthorn Bar,51.88611539999999,-8.4887909,"The Lough, Cork, Ireland"
1898,The Imperial Hotel,51.8970438,-8.4701872,"13 South Mall St, Centre, Cork, T12 KW86, Ireland"
1899,Lombard's Bar,52.1383891,-8.2747945,"1 o'Neill-Crowley Quay, Rath-Healy, Fermoy, Co. Cork, Ireland"
1903,The Ashley Hotel,51.9019355,-8.470944099999999,"Coburg St, Centre, Cork, Ireland"
1905,The Strand Bar,51.9525885,-8.6559502,"Gortdonaghmore, Gort, Co. Cork, Ireland"
1906,The Fishermans Rest,52.0928826,-8.1095394,"Conna, Co. Cork, Ireland"
1908,The Bosun Bar,51.849574,-8.3319081,"9 De Vesci Pl, Ringacoltig, Monkstown, Co. Cork, Ireland"
1913,Nealums,51.7214098,-9.114111399999999,"Dunmanway North, Co. Cork, Ireland"
1916,The Marlogue Inn And East Ferry Marina,51.86674,-8.213299,"East Ferry, Cobh, Co. Cork, Ireland"
1924,Ballymaloe House,51.865083,-8.075021,"Shanagarry, Midleton, Co. Cork, Ireland"
1936,The Grain Store,51.86519250000001,-8.0737361,"Ballymaloe House Shanagarry, Midleton, Co. Cork, Ireland"
1940,"Donal O'niallain, Trustees Cork County Board Gaa",51.8968917,-8.4863157,"Cork, Ireland"
1946,"Commodore Hotel,trade Winds & Cove Off Licence",51.8497529,-8.2963313,"4 Westbourne Pl, Kilgarvan, Cork, Ireland"
1955,The Greyhound Bar,51.720442,-9.113201799999999,"1 E Green, Dunmanway South, Dunmanway, Co. Cork, P47 NX59, Ireland"
1957,Anglers Rest,51.8974297,-8.568831,"Leemount, Coolymurraghue, Carrigrohane, Co. Cork, Ireland"
1962,Bayview Hotel,51.827908,-8.004683,"Ballycotton, Cork, Ireland"
1964,Murphys Stores,51.652348,-9.908761,"The Bridge, Knockaneroe, Castletown-Bearhaven, Co. Cork, Ireland"
1971,O'donovans Fishercross,51.62302409999999,-8.8899081,"45 Pearse St, Scartagh, Clonakilty, Co. Cork, P85 DR90, Ireland"
1973,The Castle Arms,52.171938,-8.4659421,"Main St, Castlewidenham, Castletownroche, Co. Cork, Ireland"
1975,The Leap Inn,51.580747,-9.143829900000002,"Leap, Drom, Skibbereen, Co. Cork, Ireland"
1976,Pa Johnson's,51.9017628,-8.474084999999999,"1-, Mulgrave Rd Mulgrave Rd, Shandon, Cork, T23 C634, Ireland"
1977,The Coachmans Inn,51.6042423,-9.2660491,"Bauravilla, Co. Cork, Ireland"
1978,Nolans Bar,51.5776802,-9.0326259,"6 North Square, Townlands, Rosscarbery, Co. Cork, P85 Y268, Ireland"
1979,Smart,51.9143321,-8.1726276,"Midleton, Co. Cork, Ireland"
1981,Central Star,51.9540876,-7.848264899999999,"112-113 N Main St, Youghal-Lands, Youghal, Co. Cork, P36 F403, Ireland"
1983,The Black Man,51.9300099,-8.4578892,"Ballincollie Rd, Cork, Ireland"
1984,The Wayside Inn,51.9211876,-8.6422612,"5-, 9 R579, Co. Cork, Ireland"
1985,Swantons Bar,51.6599357,-9.261245299999999,"Baurnahulla, Drimoleague, Co. Cork, Ireland"
1986,Keohanes Bar,51.7266592,-8.6288936,"Kilmacsimon, Co. Cork, Ireland"
1987,The Laurel Bar,51.8952592,-8.4725253,"Mary St, Ballintemple, Cork, Ireland"
1989,Johnny Macs Bar,51.9143321,-8.1726276,"Midleton, Co. Cork, Ireland"
1992,Moloneys,52.2333927,-8.6699275,"Main St, Buttevant, Co. Cork, Ireland"
1993,Chasers Street,52.135012,-8.6407605,"Bridge St Bridge St, Castlelands, Mallow, Co. Cork, P51 EY13, Ireland"
1994,The Little Man,,,
1995,Joshua Tree Bar,51.9014134,-8.486230899999999,"70 Blarney St, Sunday's Well, Cork, Ireland"
1996,Hibernian Bar,51.8979993,-8.4707188,"108 Oliver Plunkett St, Centre, Cork, Co. Cork, T12 E6CX, Ireland"
1997,Considines Quick Pick,52.177603,-8.9047167,"O'Brien St, Kanturk, Co. Cork, Ireland"
1998,Eldon Hotel,51.5496584,-9.2697261,"21 Bridge St, Marsh, Skibbereen, Co. Cork, Ireland"
1999,The Village Inn,51.8543215,-8.3119632,"15 Newtown Rd, Ringmeen, Cobh, Co. Cork, Ireland"
2000,The Mons Bar,51.9182454,-9.069170999999999,"Lissacresig, Lackaneen, Macroom, Co. Cork, Ireland"
2002,Bob's Bar,52.1765581,-8.9090408,"Percival St, Kanturk, Co. Cork, Ireland"
2005,Usa Bar,52.1773813,-8.9064943,"13 Church St, Kanturk, Co. Cork, P51 P7W5, Ireland"
2006,Clifford's,51.9117611,-8.0543103,"Main St, Gortnahomna Beg, Castlemartyr, Co. Cork, Ireland"
2007,Fred's Bar,51.9785007,-8.834719400000001,"Unnamed Road, Mountrivers, Co. Cork, Ireland"
2011,O'riordans The Rockforest Bar,52.1716214,-8.4659019,"The Square, Castletownroche, Co. Cork, Ireland"
2012,Buckleys Bar,51.8037942,-8.2970271,"Lower Rd, Crosshaven, Co. Cork, Ireland"
2013,O'meara's,51.897521,-8.1659793,"Ballinacurra, Ballynacorra West, Midleton, Co. Cork, Ireland"
2014,Euro Bar,51.72170879999999,-9.1133314,"Main St, Dunmanway North, Dunmanway, Co. Cork, Ireland"
2016,Geoff's Bar,52.16611289999999,-8.8239314,"Castlemagner, Co. Cork, Ireland"
2017,O'brien,52.26011800000001,-8.8042,"Main Street,, Liscarroll,, Cork, Ireland"
2018,Maple Leaf Bar,51.8970716,-8.4148068,"Blackrock Rd, Blackrock, Cork, Ireland"
2020,Murphy's Rest And Bar,51.9134251,-8.1718704,"49 Main St, Midleton, Co. Cork, Ireland"
2021,P Power,51.9939999,-8.008647,"ballyknock. mount uniacke, Killeagh, Co. Cork, Ireland"
2022,O'murchu's Bar,51.905401499999996,-8.9619185,"Castle St, Maghereen, Macroom, Co. Cork, Ireland"
2023,Southside Bar,51.8925516,-8.4820061,"152 Bandon Rd, The Lough, Cork, T12 F258, Ireland"
2024,James O Neill,51.623434,-8.891429,"2 Western Rd, Maulnaskehy, Clonakilty, Co. Cork, P85 R893, Ireland"
2026,Connie Doolans Bar,51.8504043,-8.291773599999999,"2 East Beach, Kilgarvan, Cobh, Co. Cork, P24 DD73, Ireland"
2028,The Klm Bar,51.90277820000001,-8.4515683,"141 Lower Glanmire Rd, Tivoli, Cork, Ireland"
2033,O'regan's Bar,51.5264666,-9.5452695,"Pier Rd, Meenvane, Schull, Co. Cork, Ireland"
2034,The Cornerstone Bar,51.8422496,-8.8283401,"2 Belmount Cres, Farranduff, Crookstown, Co. Cork, Ireland"
2037,Kilmichael Bar,51.7450829,-8.7322051,"Oliver Plunkett St, Cloghmacsimon, Bandon, Co. Cork, Ireland"
2038,Garry's Bar,52.1465049,-8.5166811,"Monanimy Lower, Killavullen, Co. Cork, Ireland"
2042,Edmond Walsh,51.9048039,-8.9588478,"Sleveen East, Macroom, Co. Cork, Ireland"
2044,Moks,51.89192490000001,-8.484465799999999,"39 Bandon Rd, The Lough, Cork, Ireland"
2045,Raymond O'mahony,51.747213,-8.738858,"2-, 6 Emmet Row, Bandon, Co. Cork, Ireland"
2048,Bob's Bar Ballydesmond,52.1798423,-9.2371295,"Main St, Glencollins Lower, Ballydesmond, Co. Cork, Ireland"
2050,The Kerryman's,51.908765,-8.4555452,"140 Ballyhooly Rd, Montenotte, Cork, Ireland"
2051,Tod's Bar,52.26645329999999,-8.2738781,"13 King St, Ballinwillin, Mitchelstown, Co. Cork, Ireland"
2053,The Barn Restaurant,51.9189975,-8.4176396,"2 Church Hill, Banduff, Glanmire, Co. Cork, T45 YW10, Ireland"
2054,The Old Reliable,51.9035565,-8.4777685,"20 Shandon St, Shandon, Cork, Ireland"
2056,Abbey Bar Rosscarbery,51.5773742,-9.0315905,"2 Church St, Townlands, Rosscarbery, Co. Cork, P85 R638, Ireland"
2057,Cronins,51.839032,-9.316984999999999,"Gougane Barra, Ballingeary, Co. Cork, Ireland, Ireland"
2058,Loafers,51.8932574,-8.469866099999999,"26-27 Douglas St, Ballintemple, Cork, Ireland"
2060,Mccarthy's Bar,51.72217939999999,-8.3946238,"Nohoval Village, Kinsale, Co. Cork, Ireland"
2063,Jimmy Od's,52.1372719,-8.281225599999999,"Fermoy, Co. Cork, Ireland"
2064,Commercial Bar,52.6608277,-8.6280941,"46-47 Catherine St, Limerick, V94 T2V3, Ireland"
2065,Herlihy's Bar,52.346574,-8.7677637,"Newtown South, Co. Cork, Ireland"
2066,T/a The Local,51.80269699999999,-8.581037,"Ballyhooleen Lodge, Ballyheedy, Ballinhassig, Co. Cork, Ireland"
2067,The Gortroe Inn,52.1107877,-8.7831193,"Gort Na Coille, Gortmolire, Co. Cork, Ireland"
2068,The Crawford,51.89492,-8.482170199999999,"The Lough, Cork, Ireland"
2069,Daly's Lounge Bar,51.89210929999999,-7.9395743,"Ballymacoda, Co. Cork, Ireland"
2072,The Gluepot Bar,51.8663332,-8.3316178,"Ferry Point, The Dockyard, Co. Cork, Ireland"
2073,The Rising Sun Bar,51.7763133,-8.5689335,"Ballinaloughy, Ballinhassig, Co. Cork, Ireland"
2076,The Paps Bar,52.1216599,-9.2084642,"R582, Knocknagree, Co. Cork, Ireland"
2077,Lucey's Bar,52.1221274,-9.2090996,"Knocknagree, Co. Cork, Ireland"
2079,Canty's Bar,51.914392,-8.172112,"Connolly St, Midleton, Co. Cork, Ireland"
2080,Lobster Pot Bar,51.4952298,-9.7113237,"The Lobster Pot bar, Main St, Goleen, Co. Cork, Ireland"
2087,The Flying Enterprise And The Captains Table,51.8952815,-8.4760701,"Ballintemple, Cork, Co. Cork, Ireland"
2088,The Malpaso Bar,52.0603497,-9.0616735,"1-, 7 Main St, Drominahilla, Millstreet, Co. Cork, Ireland"
2098,Mutton Lane Inn,51.8980827,-8.4739901,"3 Mutton Ln, Centre, Cork, Ireland"
2104,Fordes Bar,51.8953517,-8.4759359,"2 Barrack St, Centre, Cork, Ireland"
2105,The Kilty Stone Tavern,51.6229317,-8.888982799999999,"55 Pearse St, Scartagh, Clonakilty, Co. Cork, Ireland"
2107,"The Iso Bar, Brunos Bar, And Mardyke Leisure",51.8960894,-8.493704900000001,"Mardyke, Cork, Ireland"
2109,South County Bar,51.8761844,-8.439917,"Douglas W, Douglas, Cork, Co. Cork, T12 CKD6, Ireland"
2116,O'donovan's,51.62303,-8.8899403,"Pearse St, Scartagh, Clonakilty, Co. Cork, Ireland"
2118,The Why Not Bar,52.1756732,-9.1550499,"Kiskeam, Dromscarra, Co. Cork, Ireland"
2119,The Pinecroft Inn,51.8677381,-8.4492152,"Cooney's Ln, Grange, Cork, Ireland"
2125,J.o'sullivan,51.898395,-8.465736999999999,"1B, 6 Lapps Quay, Centre, Cork, Ireland"
2128,Blarney Castle Hotel,51.932515,-8.567337,"The Square, Monacnapa, Blarney, Co. Cork, Ireland"
2130,Orchard Bar,51.8891784,-8.4421027,"Ballinlough Rd, Ballinlough, Cork, Ireland"
2131,The Briar Rose,51.8420391,-9.127402,"R584, Inchigeelagh, Co. Cork, Ireland"
2132,T Deady,52.13897619999999,-8.6539164,"Mallow, Co. Cork, Ireland"
2133,Cronin's Pub,51.802007,-8.295031,"1 Point Rd, Crosshaven, Cork, Ireland"
2134,Park Bar And Restaurant,52.177473,-8.906598,"13 Church St, Kanturk, Co. Cork, P51 P7W5, Ireland"
2135,Hourigans Bar,52.2146001,-9.0001239,"New St, Newmarket, Co. Cork, Ireland"
2137,The Mill Wheel Bar,51.9184889,-8.1757979,"Mill Rd, Townparks, Midleton, Co. Cork, Ireland"
2138,The Halfway Bar,51.80401999999999,-8.57161,"Ballyheedy, Halfway, Co. Cork, Ireland"
2139,Rochespoint,51.79531,-8.2507799,"Trabolgan, Roches Point, Co. Cork, Ireland"
2140,The Glocca Maura Inn,52.269142,-8.270698,"3 Baldwin St, Ballinwillin, Mitchelstown, Co. Cork, Ireland"
2141,The Local Bar,51.9877566,-8.4771947,"College Rd, Carrignavar, Co. Cork, Ireland"
2142,Foleys Bar (liam O'foghlu),52.147263,-9.967067199999999,"Inch East, Co. Kerry, Ireland"
2144,Aherne's,51.95705969999999,-7.8518042999999995,"163 N Main St, Youghal, Co. Cork, Ireland"
2145,Harbour Point,51.8964761,-8.3307023,"Harbour Point Business Park, Courtstown, Co. Cork, Ireland"
2147,The White House,51.7065309,-8.5233554,"Pearse Street, Kinsale, Cork, P17Y504, Ireland"
2148,The Pink Elephant,51.645758,-8.683142,"Harbour View, Atlantic Way, Garranefeen, Kilbrittain, Co. Cork, Ireland"
2149,The Lobster Bar,51.6510681,-9.9107791,"2 Bank Pl, Cametringane, Castletown-Bearhaven, Co. Cork, Ireland"
2152,The Bay View Bar,51.5807224,-9.7036179,"Kilcrohane, Bantry, Co. Cork, Ireland"
2153,The Outpost,51.8790828,-8.521287599999999,"Curraheen Rd, Glasheen, Cork, Ireland"
2156,Casey's Bar,51.558293,-9.141354,"Main St, Union Hall, Co. Cork, Ireland"
2157,The Welcome Inn,51.8984789,-8.467540699999999,"24 Parnell Pl, Centre, Cork, T12 HV2X, Ireland"
2158,Templeacre Tavern,51.904234,-8.4887747,"10 Gurranebraher Rd, Cork, Ireland"
2159,The Thirsty Scholar,51.8971023,-8.482713400000002,"17 Lancaster Quay, Mardyke, Cork, T12 R585, Ireland"
2160,The Ouvane Falls,51.72330609999999,-9.440200299999999,"Ballylicky, Bantry, Co. Cork, Ireland"
2161,The Gaelic Bar,51.6520249,-9.1464156,"Paddock, Drinagh, Co. Cork, P45 TH70, Ireland"
2162,Parkway Hotel,51.717008,-9.1120399,"Park Rd, Underhill, Dunmanway, Co. Cork, Ireland"
2164,An Sugan,51.6231669,-8.8858526,"41 Wolfe Tone St, Scartagh, Clonakilty, Co. Cork, P85 DY95, Ireland"
2165,The Waterside Restaurant,51.526928,-9.546218999999999,"Main St, Meenvane, Schull, Co. Cork, Ireland"
2166,Araglin Bar,52.20715130000001,-8.1066188,"Gortnaskehy, Araglin, Co. Cork, Ireland"
2174,Carroll's Of Saint Lukes,51.9012605,-8.4726609,"Carroll's Quay, Cork, Ireland"
2176,Allen's Bar,51.773023,-8.4960524,"Boulaling, Riverstick, Co. Cork, Ireland"
2177,The Goalpost,51.8520025,-8.035318199999999,"R632, Shanagarry South, Co. Cork, Ireland"
2180,Vodoo Rooms,51.897305,-8.4741614,"74 Oliver Plunkett St, Centre, Cork, Ireland"
2181,The Gateway Bar,51.8943735,-8.4771909,"125 Barrack St, The Lough, Cork, T12 YY52, Ireland"
2182,The Old Oak,51.8981286,-8.470023099999999,"113 Oliver Plunkett St, Centre, Cork, T12 PY8A, Ireland"
2184,Millstreet Services/ Green Glen Arena,52.0632145,-9.0666272,"Drominahilla, Co. Cork, Ireland"
2185,Minihans Bar,51.5307257,-9.377224199999999,"Lisheen, Co. Cork, Ireland"
2186,Algiers Inn,51.4834159,-9.3727089,"Main Street, Baltimore, Co. Cork, Ireland"
2188,O'murchu's Bar,51.720871700000004,-9.1132517,"Bridge St Bridge St, Dunmanway North, Dunmanway, Co. Cork, P47 A278, Ireland"
2189,Moby Dicks,51.952824,-7.845956,"Market Square, Youghal-Lands, Youghal, Co. Cork, Ireland"
2190,East Cork And Midleton Golf Club And The Stables Bar,51.9393368,-8.1769217,"Gortacrue, Midleton, Co. Cork, Ireland"
2192,The Long Boat Bar,51.6219771,-9.521614399999999,"Rusheenaniska, Durrus, Co. Cork, Ireland"
2193,Colberts Bar,51.8977436,-8.165583,"Corner House, Main St, Ballynacorra East, Ballinacurra, Co. Cork, Ireland"
2194,T/a Hibernian Hotel,52.1374454,-8.646010799999999,"Main Street, Mallow, Co. Cork, Ireland"
2195,O'donovans Hotel,51.62303,-8.8899403,"Pearse St, Scartagh, Clonakilty, Co. Cork, Ireland"
2203,Dan Lowreys,51.9013989,-8.4682274,"13 MacCurtain Street, Centre, Cork, Co. Cork, T23 VN24, Ireland"
2204,Reidy's Winevault Bar,51.8970889,-8.4828343,"15 Cé Lancaster, Mardyke, Corcaigh, Ireland"
2206,The Armada Bar,51.7060235,-8.5234851,"Market St, Sleveen, Kinsale, Co. Cork, Ireland"
2207,Finn's Tavern,51.89153049999999,-7.9375686,"Ballymacoda, Co. Cork, Ireland"
2210,The Clondrohid Tavern,51.93184489999999,-9.0249787,"Clondrohid, Garranenagappul, Macroom, Co. Cork, Ireland"
2211,The Country Squire,51.9374762,-8.4966784,"Rathpeacon, Mallow Road, Cork, Ireland"
2212,The Skibbereen Eagle Bar,51.5006052,-9.2629614,"Bawnlahan, Tragumna, Co. Cork, Ireland"
2215,The Park Arms,52.2167349,-8.5850026,"Main St, Doneraile, Co. Cork, Ireland"
2216,The Plough Bar,52.2151615,-8.7710554,"Curraglass, Mallow, Co. Cork, Ireland"
2217,O'brien's Bar,51.5773147,-9.0328524,"3 South Square, Townlands, Rosscarbery, Co. Cork, Ireland"
2220,Mill Wheel,51.9184889,-8.1757979,"Mill Rd, Townparks, Midleton, Co. Cork, Ireland"
2221,Mcauliffe,52.05968499999999,-8.0975355,"Ballynoe, Co. Cork, Ireland"
2222,The Lighthouse Bar,51.6414412,-10.0441263,"Cloan, Co. Cork, Ireland"
2223,The Roxy Bar,51.6232109,-8.888299,"53 McCurtain Hill, Scartagh, Clonakilty, Co. Cork, P85 P237, Ireland"
2224,The Sandboat,51.5625067,-9.460712,"Staball Hill, Ballydehob, Co. Cork, Ireland"
2225,The Funcheon Bar,52.2123808,-8.385885199999999,"Derryvillane, Co. Cork, Ireland"
2226,The Stables,51.7455142,-8.7346659,"1 Oliver Plunkett St, Cloghmacsimon, Bandon, Co. Cork, Ireland"
2227,The Grange Tavern,51.6042699,-8.784637,"Lislevane House, Currahy, Bandon, Co. Cork, Ireland"
2229,Buckleys Bar,51.9822257,-8.515181799999999,"5, Whitechurch, Towers Court, Co. Cork, Ireland"
2230,The Old Market Bar,51.7443698,-8.7376988,"6 Market St, Cloghmacsimon, Bandon, Co. Cork, P72 TY09, Ireland"
2231,Butler's Minane Bridge Bar,51.76222139999999,-8.3713166,"Minane, Minane Bridge, Co. Cork, Ireland"
2233,Flemings Tavern,52.13897619999999,-8.6539164,"Mallow, Co. Cork, Ireland"
2236,Deanrock House,51.8755829,-8.495368,"Togher Rd, Togher, Cork, Ireland"
2237,Creedons Hotel,51.8421911,-9.1267177,"Inchigeelagh, Co. Cork, Ireland"
2239,Fitzgibbon,52.1866296,-8.3567368,"Rathdaggan, Glanworth, Co. Cork, Ireland"
2241,J Tattan,51.93999849999999,-7.9951978000000015,"Main St, Killeagh Gardens, Killeagh, Co. Cork, Ireland"
2245,Fitzgibbons Bar,51.8039529,-8.2972056,"8 Lower Rd, Crosshaven, Co. Cork, Ireland"
2246,Bridgies Bar,51.8241542,-8.461891999999999,"Ballyduhig South, Co. Cork, Ireland"
2250,Anchor Bar,51.6342678,-8.707739199999999,"Courtmacsherry, Bandon, Co. Cork, Ireland"
2252,Sheehan Bar,51.5496068,-9.2696091,"20 Bridge St, Marsh, Skibbereen, Co. Cork, Ireland"
2253,The Weigh Inn,51.914863,-8.742628,"Agharinagh, Dripsey Cross, Co. Cork, Ireland"
2254,Arch Bar,51.7217509,-9.1146525,"Market Square, Dunmanway North, Dunmanway, Co. Cork, Ireland"
2255,T. Lynes Bar,52.13897619999999,-8.6539164,"Mallow, Co. Cork, Ireland"
2257,The Vintage,52.177964,-8.905308999999999,"O'Brien St, Kanturk, Co. Cork, Ireland"
2258,Rosies Bar,51.5627079,-9.460618199999999,"Main St, Ballydehob, Co. Cork, Ireland"
2260,Clongibbon House,52.2657498,-8.2703709,"New Square, Brigown, Mitchelstown, Co. Cork, Ireland"
2263,Millbrook Bar,51.6526718,-9.90804,"Brandy Hall, Castletownbere, Co. Cork, Ireland"
2264,Quinlan,51.70401889999999,-8.4781858,"Knockduff, Co. Cork, Ireland"
2271,The Abbey Bar,51.64378019999999,-8.7650858,"Abbey St, Castle Lower, Timoleague, Co. Cork, Ireland"
2272,Ma Murphy's,51.6794278,-9.450873399999999,"7 New St, Town Lots, Bantry, Co. Cork, Ireland"
2273,The Old Midleton Distillery,51.9136762,-8.1681261,"The Old Distillery, Distillers Walk, Midleton, Co. Cork, Ireland"
2276,Marakibo,52.1372197,-8.6453657,"25, Bank Place, Mallow, Co. Cork, Ireland"
2278,Blairs Inn,51.9225895,-8.6497248,"1 Ireland1, Cloghroe House, Cloghroe, Blarney, Co. Cork, Ireland"
2279,Le Chateau Bars,51.8986057,-8.4725585,"93 St Patrick's St, Centre, Cork, T12 CH98, Ireland"
2280,The Old Still,51.74702139999999,-8.719878399999999,"Distillery Rd, Clogheenavodig, Bandon, Co. Cork, Ireland"
2281,The Lord Kingsale,51.70556389999999,-8.5235636,"4 Main St, Sleveen, Kinsale, Co. Cork, P17 AX67, Ireland"
2282,The Village Inn,51.7338807,-9.896823399999999,"R571, Bunskellig, Co. Cork, Ireland"
